     2.11           OBSERVATION DATA    M (MIXED)           RINEX VERSION / TYPE
teqc  2012Jun6                          20141210 00:09:20UTCPGM / RUN BY / DATE
LHAZ                                                        MARKER NAME
21613M002                                                   MARKER NUMBER
AUTOMATIC           BKG/GOWETTZELL+TBSM                     OBSERVER / AGENCY
AE7PEWVFA4G         TPS E_GGD           3.4 DEC,12,2009 P2  REC # / TYPE / VERS
2199911007          ASH701941.B     SNOW                    ANT # / TYPE
  -106942.1700  5549274.7500  3139222.2700                  APPROX POSITION XYZ
        0.1330        0.0000        0.0000                  ANTENNA: DELTA H/E/N
     1     1                                                WAVELENGTH FACT L1/2
     9    C1    P1    P2    L1    L2    D1    D2    S1    S2# / TYPES OF OBSERV
    30.0000                                                 INTERVAL
     0                                                      RCV CLOCK OFFS APPL
  2014    12     9     0     0   30.0000000     GPS         TIME OF FIRST OBS
    16                                                      LEAP SECONDS
Linux 2.4.20-8|Pentium IV|gcc -static|Linux|486/DX+         COMMENT
MAKERINEX 2.0.11285 BKG/GOWETTZELL+TBSM 2014-12-09 01:04    COMMENT
                                                            END OF HEADER
 14 12  9  0  0 30.0000000  0 15R15R17R08G20R23G28G17G24G02G06R01G10  .000436007
                                R13R24R14
  22619918.110    22619917.996    22619922.993   120873989.773 7  94013138.450 7
      2696.390        2097.196          45.000          43.000
  22277905.267    22277904.620    22277908.510   119213576.537 8  92721706.298 7
      1002.869         780.009          48.000          45.000
  22790310.628    22790311.151    22790314.550   122041107.679 7  94920911.340 7
      -493.809        -384.073          44.000          45.000
  23435924.453    23435923.891    23435926.727   123156637.327 4  95966214.894 4
     -2074.365       -1616.393          27.000          27.000
  22774099.936    22774098.335    22774103.387   121826081.702 5  94753655.739 5
     -2774.175       -2157.697          33.000          33.000
  21626436.067    21626435.567    21626438.315   113647702.665 6  88556670.009 6
     -2243.023       -1747.809          38.000          38.000
  21724542.628    21724542.607    21724544.772   114163259.452 6  88958404.468 6
     -1225.358        -954.827          41.000          41.000
  23629223.182    23629223.262    23629228.536   124172423.630 4  96757732.682 4
       314.890         245.369          26.000          26.000
  22401520.107    22401519.139    22401520.187   117720802.777 6  91730517.681 6
      1685.836        1313.637          36.000          36.000
  20403923.618    20403923.939    20403929.054   107223384.809 8  83550709.847 8
      -162.012        -126.245          48.000          48.000
  22463255.135    22463254.479    22463261.758   120079000.302 7  93394775.046 6
      2360.584        1836.010          46.000          39.000
  23049680.053    23049678.918    23049683.362   121126956.608 4  94384592.836 4
      2840.077        2213.046          27.000          27.000
  21428454.848    21428454.528    21428459.693   114426777.702 7  88998636.100 7
     -4307.029       -3349.909          47.000          46.000
  20625779.933    20625779.358    20625781.869   110295378.470 8  85785336.610 7
     -1178.173        -916.363          51.000          43.000
  19919204.245    19919203.642    19919211.407   106180590.396 8  82584934.824 7
      -625.318        -486.359          48.000          45.000
 14 12  9  0  1  0.0000000  0 15R15R17R08G20R23G28G17G24G02G06R01G10  .000445728
                                R13R24R14
  22604827.117    22604828.093    22604833.199   120793354.625 7  93950422.236 7
      2679.550        2084.096          45.000          43.000
  22272299.865    22272299.727    22272303.397   119183582.160 8  92698377.321 7
       996.999         775.443          48.000          45.000
  22793143.757    22793143.523    22793147.211   122056275.352 7  94932708.372 7
      -517.119        -402.203          44.000          45.000
  23447815.779    23447814.937    23447817.767   123219124.408 4  96014906.103 4
     -2091.200       -1629.489          27.000          27.000
  22789648.675    22789653.240    22789657.797   121909288.010 5  94818371.708 5
     -2772.372       -2156.292          34.000          33.000
  21639281.805    21639281.123    21639283.700   113715205.490 6  88609269.581 6
     -2256.902       -1758.625          38.000          38.000
  21731546.769    21731546.738    21731549.101   114200066.909 6  88987085.588 6
     -1228.188        -957.027          41.000          41.000
  23627475.592    23627475.027    23627481.032   124163240.525 4  96750576.993 4
       297.588         231.893          26.000          26.000
  22391924.883    22391924.341    22391925.452   117670382.869 6  91691229.456 6
      1675.735        1305.766          36.000          36.000
  20404894.644    20404894.982    20404900.037   107228487.427 8  83554685.912 8
      -177.912        -138.631          48.000          48.000
  22450039.499    22450039.280    22450046.081   120008357.922 7  93339830.971 6
      2349.173        1827.132          47.000          39.000
  23033480.282    23033479.795    23033482.993   121041824.863 4  94318256.391 4
      2835.563        2209.544          28.000          28.000
  21452690.110    21452689.387    21452694.244   114556189.239 7  89099289.493 7
     -4320.152       -3360.116          47.000          46.000
  20632402.843    20632402.032    20632404.712   110330793.938 8  85812881.977 7
     -1182.553        -919.762          51.000          43.000
  19922803.006    19922803.004    19922810.782   106199777.633 8  82599858.219 7
      -653.571        -508.333          48.000          44.000
 14 12  9  0  1 30.0000000  0 15R15R17R08G20R23G28G17G24G02G06R01G10  .000455450
                                R13R24R14
  22589831.606    22589832.609    22589838.603   120713225.145 7  93888099.315 7
      2662.443        2070.787          45.000          43.000
  22266727.880    22266726.967    22266731.006   119153759.913 8  92675182.211 7
       991.148         770.895          48.000          45.000
  22796106.013    22796106.207    22796109.295   122072139.299 7  94945046.985 7
      -540.500        -420.391          45.000          45.000
  23459801.886    23459801.011    23459803.300   123282112.546 4  96063987.760 4
     -2108.011       -1642.602          26.000          26.000
  22805197.804    22805196.171    22805202.971   121992439.959 5  94883045.296 5
     -2770.843       -2155.098          32.000          33.000
  21652206.623    21652205.575    21652207.801   113783121.675 6  88662191.252 6
     -2270.800       -1769.454          38.000          38.000
  21738566.715    21738566.591    21738568.868   114236956.303 7  89015830.558 7
     -1231.082        -959.285          42.000          42.000
  23625826.768    23625826.342    23625832.306   124154574.660 4  96743824.364 4
       280.158         218.313          26.000          26.000
  22382387.980    22382386.888    22382388.096   117620263.364 6  91652175.309 6
      1665.588        1297.861          36.000          36.000
  20405955.994    20405956.183    20405961.286   107234064.023 8  83559031.311 7
      -193.825        -151.034          48.000          47.000
  22436888.316    22436888.265    22436895.256   119938056.719 7  93285152.243 6
      2337.539        1818.087          47.000          39.000
  23017305.985    23017305.110    23017308.760   120956827.097 4  94252024.365 4
      2830.885        2205.877          28.000          28.000
  21476998.030    21476997.185    21477001.823   114685989.068 7  89200244.885 7
     -4333.149       -3370.227          47.000          46.000
  20639049.153    20639048.679    20639051.784   110366337.012 8  85840526.587 7
     -1186.930        -923.166          50.000          43.000
  19926561.384    19926560.877    19926568.471   106219809.568 7  82615438.597 7
      -681.872        -530.344          47.000          44.000
 14 12  9  0  2  0.0000000  0 15R15R17R08G20R23G28G17G24G02G06R01G10  .000465173
                                R13R24R14
  22574934.176    22574934.246    22574938.953   120633608.507 7  93826175.272 7
      2645.568        2057.664          46.000          42.000
  22261187.924    22261187.232    22261190.683   119124112.474 8  92652123.064 7
       985.604         766.580          49.000          46.000
  22799199.403    22799199.497    22799202.398   122088704.258 7  94957930.844 7
      -563.583        -438.342          44.000          43.000
  23471884.068    23471882.605    23471885.391   123345604.225 4  96113461.757 4
     -2124.512       -1655.448          24.000          24.000
  22820732.297    22820732.719    22820739.394   122075540.733 6  94947679.238 5
     -2768.803       -2153.514          36.000          31.000
  21665209.350    21665208.547    21665211.302   113851454.831 6  88715437.832 6
     -2284.493       -1780.125          38.000          38.000
  21745603.120    21745602.874    21745605.379   114273932.222 7  89044642.954 7
     -1233.724        -961.344          42.000          42.000
  23624276.605    23624276.886    23624282.165   124146430.240 4  96737478.044 4
       263.039         204.985          26.000          26.000
  22372908.014    22372907.241    22372908.214   117570448.559 6  91613358.594 6
      1655.637        1290.103          36.000          36.000
  20407107.980    20407108.152    20407113.273   107240117.568 8  83563748.359 8
      -209.473        -163.225          48.000          48.000
  22423801.735    22423801.511    22423809.629   119868105.277 7  93230745.558 6
      2326.103        1809.191          46.000          39.000
  23001158.969    23001156.483    23001161.050   120871970.355 4  94185902.219 4
      2826.444        2202.413          28.000          28.000
  21501377.799    21501376.734    21501381.441   114816176.312 7  89301501.600 7
     -4345.724       -3380.009          47.000          46.000
  20645719.946    20645719.577    20645722.474   110402009.754 8  85868272.047 7
     -1190.966        -926.304          50.000          43.000
  19930478.327    19930477.866    19930485.537   106240689.762 7  82631678.739 7
      -709.861        -552.117          47.000          44.000
 14 12  9  0  2 30.0000000  0 15R15R17R08G20R23G28G17G24G02G06R01G10  .000474899
                                R13R24R14
  22560129.984    22560131.218    22560137.031   120554507.879 7  93764652.575 7
      2628.095        2044.073          46.000          42.000
  22255678.392    22255678.902    22255682.391   119094638.224 8  92629198.673 7
       979.622         761.929          48.000          46.000
  22802423.274    22802423.363    22802426.985   122105971.023 7  94971360.512 7
      -587.259        -456.753          42.000          44.000
  23484062.006    23484061.285    23484063.518   123409598.038 4  96163327.041 4
     -2141.446       -1668.632          24.000          24.000
  22836258.327    22836257.862    22836263.025   122158589.804 5  95012273.019 5
     -2767.331       -2152.359          34.000          30.000
  21678292.395    21678291.514    21678294.081   113920204.073 6  88769008.634 6
     -2298.573       -1791.094          38.000          38.000
  21752655.502    21752655.277    21752658.060   114310994.411 7  89073522.566 7
     -1236.836        -963.767          42.000          42.000
  23622826.240    23622827.114    23622832.328   124138807.248 4  96731538.048 4
       245.411         191.228          26.000          26.000
  22363487.094    22363486.082    22363486.675   117520938.961 6  91574779.701 6
      1645.245        1282.011          36.000          36.000
  20408350.127    20408350.609    20408355.862   107246647.006 8  83568836.226 8
      -225.547        -175.748          48.000          48.000
  22410781.969    22410781.629    22410788.865   119798508.092 7  93176614.407 6
      2313.992        1799.772          46.000          38.000
  22985038.002    22985036.874    22985041.001   120787257.652 4  94119892.309 4
      2821.374        2198.468          28.000          28.000
  21525828.853    21525828.392    21525833.424   114946746.046 7  89403055.809 7
     -4358.624       -3390.039          47.000          46.000
  20652415.449    20652414.854    20652417.927   110437810.955 8  85896117.417 7
     -1195.468        -929.805          50.000          44.000
  19934554.841    19934554.176    19934561.535   106262417.013 8  82648577.697 7
      -738.356        -574.276          48.000          44.000
 14 12  9  0  3  0.0000000  0 15R15R17R08G20R23G28G17G24G02G06R01G10  .000484624
                                R13R24R14
  22545424.214    22545424.868    22545430.701   120475923.645 7  93703531.503 6
      2611.184        2030.920          45.000          41.000
  22250202.690    22250202.093    22250205.858   119065332.881 8  92606405.603 7
       974.434         757.893          48.000          46.000
  22805779.819    22805779.446    22805781.946   122123936.910 7  94985333.963 7
      -610.156        -474.565          45.000          45.000
  23496333.625    23496333.299    23496336.033   123474089.197 4  96213579.871 4
     -2157.655       -1681.305          25.000          25.000
  22851774.720    22851772.310    22851777.617   122241583.462 5  95076823.591 5
     -2765.070       -2150.604          33.000          31.000
  21691453.211    21691452.594    21691455.514   113989366.061 6  88822901.064 6
     -2311.895       -1801.478          38.000          38.000
  21759723.853    21759724.105    21759726.584   114348139.782 6  89102466.997 6
     -1239.198        -965.608          41.000          41.000
  23621474.566    23621474.739    23621480.000   124131702.642 4  96726001.971 4
       228.503         178.054          26.000          26.000
  22354123.228    22354122.112    22354122.732   117471731.774 6  91536436.445 6
      1635.548        1274.454          36.000          36.000
  20409682.794    20409682.962    20409688.222   107253648.181 8  83574291.681 8
      -240.877        -187.695          48.000          48.000
  22397829.807    22397829.064    22397835.801   119729265.626 7  93122759.161 6
      2302.481        1790.814          46.000          38.000
  22968945.028    22968944.061    22968947.708   120702688.844 4  94053994.532 4
      2816.915        2194.991          29.000          29.000
  21550350.407    21550350.081    21550354.907   115077690.425 7  89504901.402 7
     -4370.676       -3399.414          46.000          46.000
  20659133.596    20659132.901    20659135.837   110473735.599 8  85924058.802 7
     -1199.173        -932.692          50.000          44.000
  19938789.170    19938788.618    19938795.559   106284988.180 8  82666133.035 7
      -766.085        -595.843          48.000          44.000
 14 12  9  0  3 30.0000000  0 14R15R17R08G20G28G17G24G02G06R01G10R13  .000494351
                                R24R14
  22530817.178    22530816.849    22530822.926   120397863.041 7  93642817.697 6
      2593.269        2016.985          46.000          41.000
  22244757.583    22244757.288    22244761.073   119036197.804 7  92583744.965 7
       968.355         753.166          47.000          46.000
  22809264.900    22809265.531    22809268.512   122142605.227 7  94999853.748 7
      -633.966        -493.081          44.000          46.000
  23508701.586    23508699.947    23508703.186   123539079.022 4  96264221.252 4
     -2174.567       -1694.469          25.000          25.000
  21704693.449    21704692.515    21704695.603   114058942.820 6  88877116.684 6
     -2326.117       -1812.557          37.000          38.000
  21766808.901    21766808.966    21766811.249   114385370.899 7  89131478.236 7
     -1242.422        -968.115          42.000          42.000
  23620221.555    23620222.086    23620227.327   124125118.500 4  96720871.468 4
       210.833         164.287          26.000          26.000
  22344817.225    22344816.808    22344817.071   117422830.182 6  91498331.320 6
      1625.014        1266.248          36.000          36.000
  20411104.958    20411105.307    20411110.605   107261122.683 8  83580115.965 8
      -256.994        -200.256          48.000          48.000
  22384943.229    22384943.398    22384949.093   119660385.509 7  93069185.735 6
      2289.989        1781.104          46.000          38.000
  22952881.431    22952879.834    22952883.620   120618269.898 4  93988213.527 4
      2811.471        2190.760          29.000          29.000
  21574942.467    21574941.735    21574946.326   115209007.937 7  89607037.213 7
     -4383.378       -3409.291          46.000          46.000
  20665875.146    20665874.400    20665877.153   110509785.141 8  85952097.328 7
     -1203.654        -936.178          50.000          43.000
  19943182.392    19943181.694    19943188.648   106308405.036 8  82684346.128 7
      -794.625        -618.041          48.000          44.000
 14 12  9  0  4  0.0000000  0 15R15R17R08G20R23G28G17G24G02G06R01G10 -.000495922
                                R13R24R14
  22216514.112    22216514.637    22216518.967   118718324.968 7  92336510.308 6
      2575.777        2003.381          46.000          40.000
  21939550.974    21939551.155    21939554.986   117402978.579 8  91313463.347 7
       962.945         748.954          48.000          46.000
  22513090.273    22513089.901    22513093.314   120556600.322 7  93766294.353 7
      -657.269        -511.207          43.000          45.000
  23221370.318    23221368.836    23221372.199   122029145.898 4  95087649.934 4
     -2190.970       -1707.242          26.000          26.000
  22582980.026    22582980.950    22582985.313   120803734.492 6  93958477.748 5
     -2761.815       -2148.085          37.000          34.000
  21418220.334    21418219.347    21418221.860   112553514.014 6  87704055.241 6
     -2339.763       -1823.188          37.000          38.000
  21474117.619    21474117.519    21474119.961   112847267.346 7  87932955.969 6
     -1245.174        -970.266          42.000          41.000
  23319275.136    23319275.473    23319281.002   122543633.300 4  95488545.319 4
       193.595         150.875          26.000          27.000
  22035776.722    22035776.152    22035776.385   115798810.266 6  90232861.266 6
      1614.950        1258.404          37.000          37.000
  20112824.517    20112824.783    20112829.898   105693647.614 8  82358706.816 8
      -272.585        -212.403          48.000          48.000
  22072333.331    22072333.387    22072340.763   117989304.966 7  91769456.413 6
      2277.826        1771.638          46.000          39.000
  22637052.557    22637050.946    22637055.353   118958578.822 5  92694947.738 5
      2806.461        2186.858          30.000          30.000
  21299811.529    21299810.451    21299814.698   113739820.495 7  88464335.837 7
     -4395.390       -3418.638          46.000          45.000
  20372846.974    20372846.156    20372849.433   108942831.785 8  84733355.812 7
     -1207.589        -939.236          50.000          44.000
  19647941.772    19647940.643    19647947.475   104734603.332 8  81460278.120 7
      -822.634        -639.826          48.000          44.000
 14 12  9  0  4 30.0000000  0 15R15R17R08G20R23G28G17G24G02G06R01G10 -.000486196
                                R13R24R14
  22202103.153    22202103.557    22202108.599   118641317.945 7  92276615.944 6
      2558.180        1989.694          46.000          40.000
  21934168.260    21934167.829    21934172.123   117374175.855 7  91291061.255 7
       957.481         744.707          47.000          45.000
  22516837.653    22516838.404    22516841.186   120576671.246 7  93781905.038 7
      -680.590        -529.347          44.000          45.000
  23233925.167    23233924.392    23233927.731   122095123.884 4  95139061.288 4
     -2207.388       -1720.044          27.000          27.000
  22598461.541    22598460.940    22598469.352   120886562.679 5  94022899.623 5
     -2759.889       -2146.578          34.000          34.000
  21431616.382    21431615.923    21431618.530   112623914.292 6  87758912.567 6
     -2353.390       -1833.812          37.000          37.000
  21481234.515    21481234.474    21481236.979   112884666.294 7  87962097.988 7
     -1247.863        -972.363          42.000          42.000
  23318219.866    23318220.164    23318226.189   122538086.486 4  95484223.125 4
       176.413         137.466          27.000          27.000
  22026586.884    22026585.976    22026586.283   115750515.864 6  90195229.269 6
      1604.901        1250.570          37.000          37.000
  20114425.563    20114425.829    20114430.941   105702061.273 8  82365262.910 8
      -288.123        -224.512          48.000          48.000
  22059584.985    22059584.581    22059592.033   117921157.517 7  91716452.822 6
      2265.563        1762.107          46.000          39.000
  22621046.424    22621044.675    22621048.913   118874464.388 5  92629403.996 5
      2801.384        2182.891          30.000          30.000
  21324539.068    21324538.081    21324542.774   113871864.864 7  88567036.981 7
     -4407.308       -3427.908          46.000          46.000
  20379633.140    20379632.642    20379635.476   108979122.049 8  84761581.559 7
     -1211.509        -942.284          50.000          43.000
  19652650.169    19652649.636    19652656.554   104759705.251 8  81479801.819 7
      -850.635        -661.605          48.000          44.000
 14 12  9  0  5  0.0000000  0 15R15R17R08G20R23G28G17G24G02G06R01G10 -.000476470
                                R13R24R14
  22187792.120    22187792.347    22187797.624   118564843.342 7  92217135.689 6
      2540.079        1975.615          46.000          40.000
  21928815.670    21928816.114    21928819.938   117345537.800 7  91268787.232 7
       951.714         740.222          47.000          46.000
  22520717.667    22520717.974    22520720.707   120597444.508 7  93798062.007 7
      -704.269        -547.766          45.000          46.000
  23246574.390    23246573.059    23246576.588   122161594.120 4  95190856.226 4
     -2224.009       -1732.995          29.000          29.000
  22613936.700    22613937.900    22613941.245   120969334.289 5  94087277.513 5
     -2758.217       -2145.278          35.000          31.000
  21445090.607    21445090.456    21445093.742   112694725.956 6  87814090.449 6
     -2367.376       -1844.703          37.000          37.000
  21488366.915    21488367.137    21488369.885   112922149.890 7  87991305.969 7
     -1251.018        -974.820          42.000          42.000
  23317262.604    23317263.682    23317268.730   122533058.669 4  95480305.332 4
       158.780         123.719          27.000          27.000
  22017454.975    22017453.729    22017454.260   115702526.262 6  90157834.780 6
      1594.420        1242.405          37.000          37.000
  20116115.735    20116115.945    20116121.159   105710943.352 8  82372184.005 8
      -303.991        -236.875          48.000          48.000
  22046906.163    22046905.695    22046913.194   117853383.108 7  91663739.382 6
      2252.754        1752.143          45.000          39.000
  22605068.682    22605067.567    22605072.344   118790507.473 5  92563983.009 5
      2795.771        2178.532          30.000          30.000
  21349333.757    21349332.532    21349337.143   114004266.543 7  88670016.028 7
     -4419.436       -3437.338          46.000          46.000
  20386441.588    20386441.051    20386444.002   109015530.734 8  84789899.412 7
     -1215.721        -945.563          50.000          44.000
  19657516.633    19657516.605    19657523.441   104785648.994 8  81499980.269 7
      -878.936        -683.615          48.000          44.000
 14 12  9  0  5 30.0000000  0 15R15R17R08G20R23G28G17G24G02G06R01G10 -.000466742
                                R13R24R14
  22173581.440    22173582.298    22173586.644   118488907.410 7  92158074.397 6
      2522.107        1961.638          46.000          40.000
  21923495.555    21923495.725    21923499.080   117317066.344 7  91246642.764 7
       946.198         735.934          47.000          45.000
  22524729.408    22524729.380    22524731.551   120618924.238 7  93814768.437 7
      -727.847        -566.102          44.000          46.000
  23259317.072    23259316.418    23259319.127   122228558.170 5  95243035.939 5
     -2240.434       -1745.782          30.000          31.000
  22629404.567    22629398.255    22629407.131   121052052.603 5  94151614.030 5
     -2756.692       -2144.079          30.000          30.000
  21458645.418    21458644.637    21458647.341   112765951.530 6  87869590.865 6
     -2381.134       -1855.432          37.000          37.000
  21495517.085    21495516.680    21495519.469   112959721.250 6  88020582.334 6
     -1253.907        -977.072          41.000          41.000
  23316405.178    23316406.157    23316411.552   122528553.372 4  95476794.691 4
       141.411         110.193          27.000          27.000
  22008380.725    22008380.289    22008380.724   115654844.976 6  90120680.530 6
      1584.172        1234.424          37.000          37.000
  20117895.458    20117895.748    20117900.892   105720296.012 8  82379471.786 8
      -319.638        -249.066          48.000          48.000
  22034299.210    22034298.733    22034306.112   117785989.542 7  91611322.153 6
      2239.991        1742.214          46.000          39.000
  22589123.913    22589122.878    22589127.590   118706714.588 5  92498689.830 5
      2790.269        2174.245          31.000          31.000
  21374194.359    21374193.549    21374198.689   114137024.177 7  88773271.933 7
     -4431.177       -3446.468          46.000          45.000
  20393273.383    20393272.412    20393275.064   109052059.870 8  84818310.953 7
     -1219.728        -948.677          50.000          43.000
  19662543.069    19662542.107    19662548.900   104812437.025 8  81520815.387 7
      -907.017        -705.457          48.000          44.000
 14 12  9  0  6  0.0000000  0 14R15R17R08G20G28G17G24G02G06R01G10R13 -.000457013
                                R24R14
  22159471.977    22159473.035    22159477.809   118413512.499 7  92099433.904 6
      2504.062        1947.606          45.000          41.000
  21918206.080    21918205.852    21918208.992   117288758.160 7  91224625.295 7
       940.806         731.737          47.000          45.000
  22528872.698    22528872.321    22528874.588   120641108.919 7  93832023.140 7
      -751.318        -584.361          43.000          46.000
  23272153.529    23272152.471    23272155.402   122296013.093 5  95295598.159 5
     -2256.730       -1758.493          31.000          31.000
  21472276.801    21472276.210    21472279.654   112837588.722 6  87925412.018 6
     -2394.825       -1866.092          37.000          37.000
  21502682.644    21502682.699    21502685.453   112997378.907 6  88049925.933 6
     -1256.754        -979.290          41.000          41.000
  23315647.776    23315647.758    23315653.141   122524568.253 4  95473689.392 4
       124.114          96.713          28.000          28.000
  21999366.487    21999365.470    21999365.641   115607470.828 6  90083765.616 6
      1573.961        1226.463          37.000          38.000
  20119763.896    20119764.481    20119769.610   105730116.332 8  82387123.977 7
      -335.200        -261.196          48.000          47.000
  22021763.770    22021763.359    22021770.859   117718979.202 7  91559202.992 6
      2227.164        1732.238          46.000          39.000
  22573208.672    22573208.233    22573213.927   118623086.975 5  92433525.431 5
      2784.766        2169.943          30.000          30.000
  21399120.386    21399120.025    21399125.576   114270131.014 7  88876799.432 7
     -4442.748       -3455.471          46.000          45.000
  20400126.511    20400125.726    20400128.276   109088706.009 8  84846813.504 7
     -1223.529        -951.634          50.000          43.000
  19667726.000    19667725.499    19667732.265   104840066.597 8  81542305.029 7
      -935.076        -727.278          48.000          44.000
 14 12  9  0  6 30.0000000  0 14R15R17R08G20G28G17G24G02G06R01G10R13 -.000447284
                                R24R14
  22145465.555    22145466.202    22145470.668   118338661.641 7  92041216.560 6
      2485.968        1933.535          46.000          41.000
  21912946.752    21912946.259    21912949.357   117260611.818 7  91202733.703 7
       935.582         727.675          46.000          46.000
  22533145.888    22533146.161    22533149.239   120663998.773 7  93849826.305 7
      -774.701        -602.544          43.000          45.000
  23285082.827    23285081.856    23285084.642   122363956.474 5  95348541.004 5
     -2272.911       -1771.097          31.000          31.000
  21485987.035    21485986.648    21485989.732   112909636.534 6  87981553.128 6
     -2408.412       -1876.682          37.000          37.000
  21509865.083    21509865.094    21509867.778   113035122.483 6  88079336.488 6
     -1259.521        -981.446          41.000          41.000
  23314988.965    23314987.893    23314993.355   122521102.782 4  95470989.025 4
       106.881          83.278          28.000          28.000
  21990409.858    21990408.879    21990409.162   115560403.075 6  90047089.456 6
      1563.830        1218.566          37.000          37.000
  20121721.276    20121721.899    20121727.089   105740402.758 7  82395139.371 7
      -350.609        -273.201          47.000          47.000
  22009300.522    22009299.910    22009307.722   117652355.660 7  91507384.667 6
      2214.353        1722.273          46.000          39.000
  22557328.200    22557326.252    22557332.532   118539627.420 5  92368491.982 5
      2779.137        2165.566          31.000          31.000
  21424112.312    21424111.413    21424116.760   114403581.583 7  88980594.281 7
     -4454.007       -3464.226          46.000          46.000
  20407000.472    20407000.043    20407002.708   109125467.199 8  84875405.531 7
     -1227.235        -954.514          50.000          43.000
  19673066.442    19673066.169    19673073.183   104868536.342 8  81564448.153 7
      -962.970        -748.977          48.000          45.000
 14 12  9  0  7  0.0000000  0 14R15R17R08G20G28G17G24G02G06R01G10R13 -.000437550
                                R24R14
  22131561.264    22131562.240    22131567.606   118264364.696 7  91983430.055 7
      2467.630        1919.264          45.000          42.000
  21907718.753    21907718.460    21907720.679   117232632.830 7  91180972.262 7
       930.234         723.516          47.000          45.000
  22537553.403    22537553.782    22537556.396   120687600.834 7  93868183.441 7
      -798.210        -620.837          45.000          45.000
  23298105.433    23298104.942    23298108.146   122432393.570 5  95401868.555 5
     -2289.135       -1783.740          31.000          31.000
  21499777.369    21499776.702    21499779.118   112982101.035 6  88038018.933 6
     -2422.069       -1887.327          37.000          37.000
  21517065.044    21517065.084    21517067.825   113072958.241 6  88108818.865 6
     -1262.403        -983.686          41.000          41.000
  23314428.756    23314428.510    23314434.155   122518163.599 4  95468698.743 4
        89.562          69.775          28.000          28.000
  21981512.423    21981511.434    21981512.149   115513648.998 6  90010657.716 6
      1553.577        1210.580          38.000          37.000
  20123768.794    20123769.125    20123774.150   105751160.854 8  82403522.300 7
      -366.115        -285.286          48.000          47.000
  21996911.400    21996911.019    21996918.507   117586130.173 7  91455875.935 6
      2201.204        1712.054          45.000          39.000
  22541479.502    22541478.367    22541484.538   118456345.618 5  92303597.042 5
      2773.393        2161.085          30.000          30.000
  21449168.306    21449167.589    21449172.546   114537378.574 7  89084658.565 7
     -4465.285       -3472.998          46.000          46.000
  20413897.837    20413897.383    20413899.617   109162349.018 8  84904091.394 7
     -1231.081        -957.510          50.000          42.000
  19678566.241    19678565.665    19678573.002   104897852.366 8  81587249.487 7
      -990.934        -770.725          48.000          44.000
 14 12  9  0  7 30.0000000  0 15R15R17R08G20R23G28G17G24G02G06R01G10 -.000427819
                                R13R24R14
  22117761.532    22117761.277    22117766.296   118190615.649 7  91926069.677 7
      2449.279        1904.996          45.000          42.000
  21902518.580    21902518.900    21902521.551   117204809.354 7  91159331.772 7
       925.033         719.472          47.000          46.000
  22542092.739    22542092.955    22542095.262   120711904.972 7  93887086.659 7
      -821.685        -639.090          46.000          46.000
  23311220.610    23311219.679    23311222.851   122501312.356 5  95455571.449 5
     -2305.118       -1796.197          30.000          30.000
  22691150.810    22691150.194    22691152.891   121382357.794 5  94408531.170 1
     -2748.678       -2137.852          35.000           1.000
  21513643.628    21513643.016    21513646.050   113054971.331 6  88094800.933 6
     -2435.610       -1897.878          37.000          37.000
  21524281.080    21524280.989    21524283.562   113110876.637 7  88138365.635 6
     -1265.185        -985.854          42.000          41.000
  23313967.270    23313967.425    23313972.831   122515740.338 4  95466810.487 4
        72.303          56.341          29.000          28.000
  21972672.186    21972672.140    21972672.997   115467198.585 6  89974462.604 6
      1543.439        1202.681          38.000          38.000
  20125903.553    20125903.888    20125908.964   105762379.260 7  82412263.910 7
      -381.450        -297.233          47.000          47.000
  21984595.842    21984595.500    21984601.965   117520296.585 7  91404672.010 6
      2188.046        1701.818          45.000          39.000
  22525664.746    22525662.879    22525668.637   118373234.768 5  92238835.317 5
      2767.621        2156.588          30.000          30.000
  21474286.268    21474285.475    21474290.391   114671507.073 7  89188980.694 7
     -4476.236       -3481.511          46.000          46.000
  20420815.267    20420814.869    20420817.733   109199339.576 8  84932861.818 7
     -1234.700        -960.324          50.000          43.000
  19684222.879    19684222.028    19684229.344   104928002.951 8  81610699.928 7
     -1018.781        -792.381          48.000          44.000
 14 12  9  0  8  0.0000000  0 15R15R17R08G20R23G28G17G24G02G06R01G10 -.000418090
                                R13R24R14
  22104062.243    22104062.538    22104068.497   118117417.481 7  91869137.776 7
      2430.927        1890.721          45.000          43.000
  21897347.637    21897347.218    21897351.043   117177139.148 7  91137810.502 7
       919.999         715.557          46.000          45.000
  22546763.038    22546762.557    22546765.009   120736910.639 7  93906535.491 7
      -845.059        -657.267          45.000          46.000
  23324426.631    23324425.831    23324428.814   122570710.273 5  95509647.690 5
     -2321.067       -1808.614          30.000          30.000
  22706561.588    22706559.688    22706562.627   121464790.371 5  94472645.817 5
     -2746.454       -2136.135          33.000          30.000
  21527587.835    21527586.832    21527589.830   113128245.973 6  88151898.004 6
     -2449.068       -1908.365          37.000          37.000
  21531512.572    21531512.321    21531514.555   113148876.628 6  88167975.997 6
     -1267.850        -987.935          41.000          41.000
  23313603.913    23313603.866    23313609.462   122513831.497 4  95465323.068 4
        55.207          43.017          29.000          28.000
  21963891.255    21963890.586    21963891.539   115421051.393 6  89938503.770 6
      1533.332        1194.807          38.000          37.000
  20128125.464    20128125.916    20128130.961   105774055.790 8  82421362.503 7
      -396.685        -309.106          48.000          47.000
  21972354.227    21972354.297    21972360.337   117454857.807 7  91353775.165 6
      2174.833        1691.536          46.000          38.000
  22509882.013    22509881.144    22509885.926   118290296.933 5  92174208.402 5
      2761.850        2152.093          30.000          30.000
  21499465.277    21499464.334    21499469.574   114805960.992 7  89293555.936 7
     -4487.022       -3489.904          46.000          46.000
  20427752.338    20427751.875    20427754.585   109236436.548 8  84961715.010 7
     -1238.173        -963.021          50.000          43.000
  19690035.026    19690034.347    19690041.571   104958986.135 8  81634797.946 7
     -1046.442        -813.897          48.000          44.000
 14 12  9  0  8 30.0000000  0 15R15R17R08G20R23G28G17G24G02G06R01G10 -.000408361
                                R13R24R14
  22090467.926    22090468.983    22090475.429   118044778.616 7  91812640.890 7
      2412.090        1876.070          45.000          43.000
  21892206.387    21892205.793    21892210.054   117149626.838 7  91116412.038 7
       914.571         711.334          47.000          46.000
  22551563.952    22551564.122    22551566.704   120762624.139 7  93926534.816 7
      -868.783        -675.718          45.000          47.000
  23337725.129    23337723.963    23337726.825   122640591.580 4  95564100.606 4
     -2337.301       -1821.265          29.000          29.000
  22721959.704    22721960.110    22721964.398   121547166.225 5  94536715.766 5
     -2744.743       -2134.792          34.000          31.000
  21541609.326    21541608.755    21541611.253   113201930.020 6  88209314.094 6
     -2462.803       -1919.069          37.000          37.000
  21538760.058    21538760.083    21538762.580   113186964.547 6  88197654.883 6
     -1270.921        -990.328          41.000          41.000
  23313339.332    23313339.935    23313345.094   122512443.589 4  95464241.567 4
        37.742          29.420          29.000          29.000
  21955168.322    21955167.993    21955168.986   115375213.512 6  89902785.955 6
      1522.907        1186.676          38.000          38.000
  20130435.524    20130435.929    20130440.938   105786195.170 7  82430821.759 7
      -412.213        -321.205          47.000          47.000
  21960187.477    21960187.679    21960195.083   117389824.501 7  91303193.687 6
      2161.127        1680.878          46.000          38.000
  22494134.842    22494132.651    22494137.616   118207541.266 5  92109723.439 5
      2755.573        2147.209          30.000          30.000
  21524704.022    21524704.025    21524709.472   114940741.783 7  89398385.385 7
     -4497.949       -3498.401          45.000          45.000
  20434710.415    20434709.690    20434712.920   109273644.390 8  84990654.437 7
     -1241.950        -965.960          50.000          43.000
  19696004.555    19696003.676    19696011.023   104990806.679 8  81659547.242 7
     -1074.462        -835.692          48.000          44.000
 14 12  9  0  9  0.0000000  0 15R15R17R08G20R23G28G17G24G02G06R01G10 -.000398630
                                R13R24R14
  22076980.115    22076981.143    22076987.404   117972704.600 7  91756583.319 7
      2392.852        1861.108          44.000          43.000
  21887094.273    21887093.959    21887098.686   117122273.419 7  91095137.173 7
       909.023         707.019          47.000          46.000
  22556498.012    22556498.241    22556501.283   120789047.608 7  93947086.331 7
      -892.816        -694.408          45.000          47.000
  23351114.592    23351113.711    23351116.816   122710956.399 4  95618930.295 4
     -2353.617       -1833.991          28.000          27.000
  22737347.154    22737347.983    22737353.816   121629487.233 5  94600743.140 5
     -2743.186       -2133.583          33.000          31.000
  21555709.053    21555708.565    21555711.100   113276024.757 6  88267050.198 6
     -2476.784       -1929.958          37.000          37.000
  21546024.677    21546024.742    21546027.496   113225142.183 6  88227403.661 6
     -1274.198        -992.884          41.000          41.000
  23313174.271    23313174.736    23313180.439   122511577.435 4  95463566.631 4
        20.028          15.596          29.000          29.000
  21946505.863    21946504.798    21946505.671   115329687.535 6  89867311.171 6
      1512.201        1178.337          38.000          38.000
  20132833.919    20132834.062    20132839.225   105798798.163 7  82440642.271 7
      -427.936        -333.458          47.000          47.000
  21948099.451    21948099.292    21948106.513   117325202.623 7  91252932.214 6
      2147.009        1669.898          47.000          38.000
  22478421.897    22478420.928    22478425.739   118124972.898 5  92045384.440 5
      2749.000        2142.074          30.000          30.000
  21550005.268    21550004.891    21550010.333   115075846.437 7  89503466.752 7
     -4508.979       -3506.985          45.000          46.000
  20441689.033    20441688.764    20441692.010   109310963.685 8  85019680.541 7
     -1245.960        -969.080          50.000          43.000
  19702131.025    19702130.422    19702137.908   105023465.781 8  81684948.749 7
     -1102.726        -857.675          48.000          44.000
 14 12  9  0  9 30.0000000  0 16R15R17R08G20R23G28G17G24G02G06R01G10 -.000388898
                                G12R13R24R14
  22063599.279    22063600.034    22063605.943   117901199.177 7  91700967.993 7
      2373.813        1846.300          44.000          43.000
  21882012.462    21882011.767    21882015.701   117095077.060 7  91073984.458 7
       903.747         702.913          47.000          46.000
  22561565.655    22561565.581    22561568.160   120816181.179 7  93968190.167 7
      -916.429        -712.779          47.000          46.000
  23364596.920    23364595.585    23364598.817   122781803.200 4  95674135.546 4
     -2369.699       -1846.523          26.000          26.000
  22752721.091    22752726.513    22752732.989   121711752.797 5  94664727.423 5
     -2741.608       -2132.374          30.000          31.000
  21569887.387    21569886.692    21569889.291   113350529.375 6  88325105.692 6
     -2490.503       -1940.652          37.000          37.000
  21553306.511    21553306.970    21553309.565   113263409.749 6  88257222.526 6
     -1277.252        -995.263          41.000          41.000
  23313108.880    23313109.464    23313115.064   122511233.407 5  95463298.543 5
         2.602           2.029          30.000          30.000
  21937901.870    21937900.729    21937901.693   115284472.832 6  89832078.941 6
      1501.791        1170.226          38.000          38.000
  20135320.080    20135320.436    20135325.498   105811863.484 8  82450823.037 7
      -443.378        -345.488          48.000          47.000
  21936088.163    21936087.451    21936095.132   117260996.460 7  91202994.089 6
      2133.052        1659.041          47.000          39.000
  22462747.312    22462745.061    22462748.925   118042594.741 5  91981193.648 5
      2742.585        2137.081          30.000          30.000
  24210632.236                                   127227726.988 6
      2860.584                          37.000
  21575366.164    21575365.392    21575371.445   115211271.050 7  89608796.956 7
     -4519.574       -3515.223          44.000          46.000
  20448689.072    20448688.495    20448691.481   109348393.299 8  85048792.445 7
     -1249.641        -971.941          50.000          43.000
  19708414.614    19708414.004    19708421.583   105056961.757 7  81711001.166 7
     -1130.661        -879.402          47.000          45.000
 14 12  9  0 10  0.0000000  0 15R15R17R08G20G28G17G24G02G06R01G10G12 -.000379168
                                R13R24R14
  22050324.507    22050324.904    22050330.281   117830258.240 7  91645791.711 7
      2355.074        1831.725          44.000          43.000
  21876957.898    21876957.834    21876961.677   117068029.890 7  91052947.776 7
       898.936         699.173          47.000          46.000
  22566764.119    22566764.067    22566766.812   120844018.453 7  93989841.338 7
      -939.837        -730.983          47.000          46.000
  23378168.647    23378167.052    23378170.666   122853123.690 4  95729709.912 4
     -2385.423       -1858.775          25.000          25.000
  21584141.502    21584140.895    21584143.495   113425436.379 6  88383474.737 6
     -2503.822       -1951.032          37.000          37.000
  21560605.155    21560605.189    21560607.743   113301761.052 6  88287106.634 6
     -1279.944        -997.356          41.000          41.000
  23313141.228    23313141.900    23313147.357   122511404.051 4  95463431.498 4
       -14.454         -11.263          29.000          29.000
  21929356.201    21929354.686    21929355.785   115239563.425 6  89797084.601 6
      1491.723        1162.382          38.000          38.000
  20137892.941    20137893.202    20137898.405   105825383.294 8  82461357.951 7
      -458.393        -357.188          48.000          47.000
  21924153.954    21924153.681    21924161.862   117197203.137 7  91153377.056 6
      2119.358        1648.394          47.000          40.000
  22447105.669    22447104.707    22447108.762   117960403.289 5  91917148.349 5
      2736.395        2132.248          31.000          31.000
  24194301.244    24194301.400    24194303.798   127141915.654 4  99071643.273 4
      2859.797        2228.415          26.000          26.000
  21600785.221    21600784.409    21600789.480   115347003.459 7  89714366.569 7
     -4529.719       -3523.113          45.000          45.000
  20455707.460    20455706.963    20455709.786   109385924.732 8  85077983.547 7
     -1252.934        -974.508          50.000          43.000
  19714853.751    19714853.256    19714860.860   105091286.841 8  81737698.443 7
     -1158.160        -900.789          48.000          45.000
 14 12  9  0 10 30.0000000  0 15R15R17R08G20G28G17G24G02G06R01G10G12 -.000369434
                                R13R24R14
  22037156.293    22037157.499    22037163.251   117759896.031 7  91591065.547 7
      2335.757        1816.702          45.000          44.000
  21871932.829    21871932.757    21871936.622   117041140.241 7  91032033.635 7
       893.736         695.128          47.000          46.000
  22572095.904    22572095.796    22572098.500   120872569.177 7  94012047.438 7
      -963.567        -749.441          47.000          45.000
  23391832.051    23391830.748    23391834.854   122924925.759 4  95785659.542 4
     -2401.332       -1871.162          24.000          24.000
  21598474.591    21598473.243    21598476.242   113500754.935 6  88442164.463 6
     -2517.446       -1961.645          37.000          37.000
  21567921.359    21567920.930    21567923.707   113340205.457 7  88317063.290 7
     -1283.012        -999.747          42.000          42.000
  23313272.631    23313274.037    23313279.112   122512098.513 4  95463972.627 4
       -31.811         -24.795          29.000          29.000
  21920868.858    21920868.600    21920869.752   115194969.080 6  89762335.759 6
      1481.276        1154.239          37.000          38.000
  20140553.700    20140554.052    20140559.173   105839365.796 8  82472253.400 8
      -473.766        -369.170          48.000          48.000
  21912300.576    21912300.248    21912307.766   117133836.717 7  91104092.053 6
      2105.071        1637.275          47.000          40.000
  22431503.773    22431502.300    22431506.478   117878411.696 5  91853258.784 5
      2729.754        2127.075          31.000          31.000
  24177981.410    24177979.748    24177981.249   127056141.067 3  99004805.942 3
      2858.517        2227.411          23.000          23.000
  21626261.756    21626261.346    21626266.251   115483049.057 7  89820179.761 7
     -4539.975       -3531.088          44.000          45.000
  20462746.401    20462746.217    20462749.166   109423566.436 8  85107260.416 7
     -1256.528        -977.300          50.000          43.000
  19721450.342    19721449.916    19721457.187   105126449.227 8  81765046.952 7
     -1186.008        -922.451          48.000          45.000
 14 12  9  0 11  0.0000000  0 15R15R17R08G20G28G17G24G02G06R01G10G12 -.000359704
                                R13R24R14
  22024096.575    22024096.972    22024102.621   117690104.344 7  91536783.118 7
      2316.658        1801.843          45.000          44.000
  21866934.441    21866934.442    21866938.762   117014395.750 7  91011232.378 7
       888.954         691.408          47.000          46.000
  22577558.512    22577558.712    22577561.428   120901822.090 7  94034799.666 7
      -986.944        -767.624          46.000          46.000
  23405585.080    23405583.859    23405586.790   122997196.071 3  95841974.011 3
     -2416.923       -1883.349          22.000          22.000
  21612883.190    21612882.145    21612885.066   113576472.921 6  88501165.442 6
     -2530.721       -1971.990          36.000          36.000
  21575252.614    21575252.511    21575255.135   113378731.924 7  88347083.885 7
     -1285.743       -1001.881          42.000          42.000
  23313503.727    23313503.690    23313508.985   122513305.810 4  95464913.355 4
       -48.915         -38.114          29.000          29.000
  21912440.987    21912440.310    21912441.758   115150679.301 6  89727824.242 6
      1471.053        1146.275          38.000          38.000
  20143300.376    20143300.570    20143305.608   105853798.781 7  82483499.876 7
      -488.740        -380.836          47.000          47.000
  21900524.909    21900524.354    21900532.419   117070890.348 7  91055133.752 6
      2091.027        1626.356          47.000          40.000
  22415936.825    22415935.945    22415940.488   117796611.885 5  91789518.641 5
      2723.269        2122.030          32.000          32.000
  24161665.325    24161663.364    24161664.953   126970395.540 3  98937991.285 3
      2857.477        2226.593          23.000          23.000
  21651794.613    21651794.145    21651798.155   115619391.710 7  89926223.996 7
     -4549.869       -3538.787          44.000          44.000
  20469804.298    20469803.491    20469806.561   109461305.877 8  85136613.299 7
     -1259.774        -979.826          50.000          44.000
  19728202.110    19728201.279    19728208.323   105162436.568 8  81793037.090 7
     -1213.443        -943.790          48.000          44.000
 14 12  9  0 11 30.0000000  0 15R15R17R08G20G28G17G24G02G06R01G10G12 -.000349976
                                R13R24R14
  22011143.383    22011144.048    22011150.187   117620889.128 7  91482949.054 7
      2297.814        1787.188          45.000          44.000
  21861963.837    21861964.203    21861968.336   116987797.306 8  90990544.716 7
       884.466         687.917          48.000          46.000
  22583151.599    22583152.295    22583155.720   120931779.828 7  94058100.095 7
     -1010.074        -785.610          45.000          46.000
  23419426.218    23419425.392    23419428.732   123069935.476 3  95898653.986 3
     -2432.211       -1895.207          21.000          20.000
  21627367.431    21627366.763    21627370.120   113652591.717 6  88560478.741 6
     -2543.702       -1982.100          36.000          36.000
  21582599.963    21582599.884    21582602.458   113417343.406 6  88377170.729 6
     -1288.194       -1003.791          41.000          41.000
  23313832.248    23313831.594    23313836.932   122515027.645 4  95466255.034 4
       -65.730         -51.213          29.000          29.000
  21904071.519    21904070.759    21904071.640   115106696.064 6  89693551.594 6
      1461.222        1138.615          37.000          38.000
  20146132.194    20146132.924    20146137.957   105868683.260 8  82495098.168 7
      -503.405        -392.266          48.000          47.000
  21888829.584    21888829.279    21888836.483   117008370.275 8  91006507.027 6
      2077.136        1615.549          48.000          40.000
  22400408.125    22400407.731    22400412.254   117715009.258 5  91725932.159 5
      2717.044        2117.173          32.000          32.000
  24145352.412    24145351.885    24145353.698   126884683.183 3  98871202.495 3
      2856.745        2226.023          21.000          21.000
  21677382.672    21677381.457    21677386.588   115756029.409 7  90032497.701 7
     -4559.180       -3546.026          43.000          44.000
  20476880.136    20476879.767    20476882.785   109499144.132 8  85166043.036 7
     -1262.613        -982.030          51.000          44.000
  19735107.989    19735107.607    19735114.327   105199249.818 8  81821669.596 7
     -1240.620        -964.927          49.000          44.000
 14 12  9  0 12  0.0000000  0 15R15R17R08G20G28G17G24G02G06R01G10G12 -.000340249
                                R13R24R14
  21998300.063    21998300.606    21998306.645   117552257.064 7  91429568.558 7
      2277.822        1771.642          45.000          44.000
  21857021.420    21857021.784    21857025.182   116961347.796 8  90969972.867 7
       879.052         683.706          48.000          45.000
  22588879.043    22588879.519    22588882.518   120962446.134 7  94081951.622 7
     -1034.144        -804.334          45.000          46.000
  23433358.579    23433357.236    23433361.477   123143146.063 3  95955701.154 3
     -2448.395       -1907.817          18.000          18.000
  21641928.755    21641928.349    21641932.114   113729114.654 6  88620106.961 6
     -2557.657       -1992.975          36.000          36.000
  21589964.570    21589964.261    21589966.776   113456043.793 6  88407326.849 6
     -1291.661       -1006.486          41.000          41.000
  23314258.607    23314258.553    23314263.133   122517267.729 5  95468000.543 4
       -83.485         -65.048          30.000          29.000
  21895761.333    21895760.388    21895761.036   115063023.175 6  89659520.784 6
      1450.445        1130.214          38.000          38.000
  20149051.256    20149051.712    20149056.792   105884021.782 7  82507050.255 7
      -518.991        -404.405          47.000          47.000
  21877214.484    21877214.649    21877221.991   116946284.434 7  90958218.018 6
      2062.100        1603.860          47.000          40.000
  22384918.859    22384917.981    22384922.764   117633610.904 5  91662504.847 5
      2709.700        2111.452          32.000          32.000
  24129050.174    24129049.564    24129051.459   126799010.394 3  98804444.528 3
      2854.947        2224.631          21.000          21.000
  21703025.804    21703024.850    21703029.420   115892961.270 7  90139000.201 7
     -4569.374       -3553.954          44.000          44.000
  20483975.663    20483974.737    20483977.569   109537083.956 8  85195551.769 7
     -1266.510        -985.062          50.000          43.000
  19742169.705    19742169.370    19742176.004   105236891.178 8  81850946.191 7
     -1268.671        -986.743          48.000          44.000
 14 12  9  0 12 30.0000000  0 15R15R17R08G20G28G17G24G02G06R01G10G12 -.000330521
                                R13R24R14
  21985566.817    21985567.245    21985573.149   117484212.800 7  91376645.234 7
      2258.311        1756.464          46.000          44.000
  21852106.678    21852107.109    21852110.058   116935046.561 8  90949516.348 7
       874.235         679.960          48.000          46.000
  22594738.299    22594738.266    22594741.731   120993822.083 7  94106355.091 7
     -1057.672        -822.631          46.000          46.000
  23447378.068    23447378.423    23447381.810   123216826.989 2  96013114.831 2
     -2463.798       -1919.859          15.000          15.000
  21656568.297    21656567.585    21656570.691   113806042.111 6  88680050.384 6
     -2570.956       -2003.334          36.000          36.000
  21597345.851    21597346.213    21597348.367   113494834.325 7  88437553.218 7
     -1294.524       -1008.719          42.000          42.000
  23314783.645    23314783.470    23314788.214   122520026.555 5  95470150.255 5
      -100.625         -78.414          30.000          30.000
  21887510.007    21887509.010    21887509.507   115019662.548 6  89625733.291 6
      1440.132        1122.185          38.000          38.000
  20152056.706    20152057.028    20152062.068   105899814.229 8  82519356.055 7
      -533.961        -416.074          48.000          47.000
  21865683.562    21865682.742    21865690.494   116884638.507 8  90910271.175 6
      2047.497        1592.500          48.000          41.000
  22369469.887    22369468.248    22369473.135   117552421.223 5  91599240.129 5
      2702.778        2106.066          32.000          32.000
  24112756.686    24112753.943    24112756.949   126713379.714 3  98737719.367 3
      2853.602        2223.587          21.000          21.000
  21728723.059    21728721.931    21728726.688   116030183.441 7  90245728.502 7
     -4578.888       -3561.350          43.000          44.000
  20491089.145    20491088.447    20491091.516   109575125.035 8  85225139.267 7
     -1269.747        -987.579          50.000          43.000
  19749386.156    19749385.765    19749392.528   105275360.561 8  81880866.800 7
     -1296.123       -1008.098          49.000          44.000
 14 12  9  0 13  0.0000000  0 15R15R17R08G20G28G17G24G02G06R01G10G12 -.000320791
                                R13R24R14
  21972944.697    21972945.066    21972950.934   117416763.179 7  91324184.412 7
      2238.628        1741.158          46.000          44.000
  21847219.925    21847220.226    21847223.088   116908895.696 8  90929176.776 7
       869.445         676.233          48.000          45.000
  22600731.181    22600731.024    22600734.237   121025910.547 7  94131312.743 7
     -1081.194        -840.925          46.000          46.000
  23461488.848    23461488.895    23461489.950   123290979.631 2  96070896.029 2
     -2479.419       -1932.029          12.000          12.000
  21671284.103    21671283.710    21671286.855   113883375.716 6  88740310.290 6
     -2584.335       -2013.763          36.000          36.000
  21604745.493    21604745.560    21604747.755   113533718.139 6  88467852.268 7
     -1297.436       -1010.991          41.000          42.000
  23315407.886    23315408.156    23315412.293   122523306.867 5  95472706.328 5
      -117.761         -91.758          30.000          30.000
  21879318.466    21879317.823    21879318.293   114976617.249 6  89592191.514 6
      1429.846        1114.167          39.000          39.000
  20155148.589    20155148.884    20155153.949   105916062.044 8  82532016.680 8
      -548.935        -427.740          48.000          48.000
  21854235.220    21854234.762    21854241.438   116823439.070 7  90862671.590 6
      2032.760        1581.034          47.000          41.000
  22354061.152    22354059.371    22354064.055   117471446.281 5  91536142.749 5
      2695.748        2100.586          32.000          32.000
  24096469.082    24096468.333    24096470.564   126627796.313 3  98671031.034 3
      2852.241        2222.512          22.000          22.000
  21754473.990    21754473.370    21754478.611   116167694.519 7  90352681.508 7
     -4588.199       -3568.602          44.000          44.000
  20498221.734    20498221.615    20498224.393   109613269.169 8  85254806.905 7
     -1272.887        -990.024          50.000          43.000
  19756758.675    19756758.115    19756764.859   105314659.013 8  81911432.240 7
     -1323.492       -1029.382          49.000          44.000
 14 12  9  0 13 30.0000000  0 16R15R17R08G20G28G17G24G02G06R01G10G12 -.000311058
                                R13R02R24R14
  21960433.021    21960434.046    21960440.016   117349910.301 7  91272187.727 7
      2218.492        1725.496          46.000          44.000
  21842360.689    21842360.947    21842363.627   116882892.508 8  90908952.112 7
       864.431         672.338          48.000          45.000
  22606855.345    22606856.012    22606859.080   121058710.637 7  94156823.879 7
     -1105.038        -859.472          47.000          46.000
  23475690.026    23475690.888    23475695.125   123365600.889 1  96129042.414 1
     -2495.048       -1944.180          11.000          10.000
  21686077.636    21686076.784    21686079.958   113961114.123 6  88800885.611 6
     -2597.852       -2024.299          36.000          36.000
  21612162.610    21612162.635    21612164.808   113572694.677 6  88498223.562 7
     -1300.655       -1013.495          41.000          42.000
  23316131.196    23316130.967    23316134.989   122527107.135 4  95475667.543 5
      -135.202        -105.344          29.000          30.000
  21871186.691    21871186.352    21871186.838   114933886.333 6  89558894.704 6
      1419.218        1105.888          38.000          38.000
  20158326.385    20158326.800    20158332.106   105932762.998 8  82545030.402 7
      -564.124        -439.576          48.000          47.000
  21842870.754    21842869.878    21842877.621   116762689.624 7  90815422.007 6
      2017.569        1569.223          47.000          41.000
  22338693.373    22338691.721    22338696.257   117390688.365 5  91473214.467 5
      2688.428        2094.875          32.000          32.000
  24080191.935    24080191.656    24080193.021   126542261.242 3  98604380.379 3
      2850.450        2221.131          23.000          22.000
  21780278.830    21780277.542    21780283.281   116305488.779 7  90459854.749 7
     -4597.682       -3575.973          43.000          44.000
  23762729.015    23762795.102                   126803166.725 5
      3315.264                          34.000
  20505373.725    20505373.205    20505376.597   109651513.784 8  85284552.698 7
     -1276.402        -992.759          50.000          43.000
  19764286.063    19764285.531    19764292.500   105354784.092 8  81942640.616 7
     -1351.147       -1050.890          49.000          44.000
 14 12  9  0 14  0.0000000  0 16R15R17R08G20G28G17G24G02G06R01G10G12 -.000301326
                                R13R02R24R14
  21948035.233    21948035.497    21948041.271   117283655.264 7  91220656.031 7
      2198.696        1710.098          46.000          44.000
  21837527.555    21837527.334    21837531.389   116857034.056 7  90888840.021 7
       859.764         668.706          47.000          45.000
  22613113.538    22613113.794    22613116.842   121092220.224 7  94182886.850 7
     -1128.667        -877.846          47.000          46.000
  23489979.906    23489977.887    23489982.580   123440687.000 1  96187551.023 1
     -2510.329       -1956.133          10.000           9.000
  21700947.811    21700946.922    21700949.590   114039254.463 6  88861774.131 6
     -2611.231       -2034.723          36.000          36.000
  21619596.879    21619596.790    21619598.863   113611762.118 6  88528665.694 6
     -1303.590       -1015.782          41.000          41.000
  23316953.190    23316952.834    23316956.901   122531424.428 4  95479031.645 4
      -152.354        -118.718          29.000          29.000
  21863115.903    21863114.536    21863114.798   114891467.796 6  89525841.306 6
      1408.928        1097.869          38.000          39.000
  20161589.940    20161590.503    20161595.920   105949913.879 8  82558394.717 8
      -579.004        -451.168          48.000          48.000
  21831590.288    21831590.303    21831597.013   116702392.313 7  90768524.088 6
      2002.527        1557.518          47.000          40.000
  22323366.877    22323365.616    22323370.042   117310148.684 5  91410456.240 5
      2681.133        2089.203          32.000          32.000
  24063924.253    24063924.307    24063925.775   126456774.234 4  98537767.146 3
      2848.932        2219.941          24.000          23.000
  21806134.232    21806133.922    21806139.933   116443559.372 7  90567242.933 7
     -4606.784       -3583.052          43.000          45.000
  23744099.419    23744143.378    23744144.219   126703646.835 5  98546837.592 5
      3319.772        2582.046          35.000          30.000
  20512544.683    20512543.677    20512546.817   109689855.759 8  85314374.215 7
     -1279.502        -995.168          50.000          43.000
  19771967.746    19771967.242    19771973.985   105395732.359 8  81974489.247 7
     -1378.479       -1072.149          48.000          44.000
 14 12  9  0 14 30.0000000  0 17R15R17R08G20R23G28G17G24G02G06R01G10 -.000291593
                                G12R13R02R24R14
  21935748.225    21935748.664    21935754.817   117218001.401 7  91169591.913 7
      2178.511        1694.398          46.000          44.000
  21832722.058    21832721.895    21832726.086   116831319.991 8  90868840.219 7
       854.852         664.882          48.000          45.000
  22619503.816    22619504.002    22619507.418   121126439.662 7  94209501.933 7
     -1152.368        -896.286          47.000          46.000
  23504353.973    23504352.810    23504356.314   123516236.929 1  96246420.930 1
     -2525.864       -1968.211           6.000           6.000
  22905904.540    22905906.171    22905910.117   122531143.064 1  95302032.305 1
     -2721.512       -2116.731           1.000           1.000
  21715893.627    21715892.873    21715895.561   114117796.368 6  88922975.552 6
     -2624.650       -2045.181          36.000          36.000
  21627048.887    21627048.508    21627050.457   113650921.292 6  88559179.302 6
     -1306.775       -1018.267          41.000          41.000
  23317873.204    23317872.774    23317877.296   122536259.986 5  95482799.608 4
      -169.724        -132.245          30.000          29.000
  21855102.790    21855102.165    21855102.627   114849362.683 6  89493032.138 6
      1398.342        1089.614          39.000          39.000
  20164939.217    20164939.804    20164945.171   105967514.027 8  82572109.111 7
      -594.055        -462.901          48.000          47.000
  21820396.310    21820395.600    21820402.517   116642551.790 7  90721981.437 6
      1987.093        1545.517          47.000          40.000
  22308082.120    22308081.706    22308086.023   117229831.221 5  91347871.183 5
      2673.603        2083.326          32.000          33.000
  24047667.279    24047665.701    24047668.277   126371338.114 4  98471193.559 4
      2847.110        2218.523          25.000          25.000
  21832041.464    21832040.903    21832046.857   116581902.768 7  90674843.268 7
     -4615.826       -3590.085          42.000          45.000
  23725418.976    23725466.959                   126603996.663 5
      3323.930                          31.000
  20519733.117    20519732.148    20519734.912   109728294.854 8  85344271.269 7
     -1282.821        -997.747          50.000          43.000
  19779804.147    19779803.252    19779810.016   105437502.990 8  82006977.495 7
     -1405.956       -1093.521          48.000          44.000
 14 12  9  0 15  0.0000000  0 17R15R17R08G20R23G28G17G24G02G06R01G10 -.000281862
                                G12R13R02R24R14
  21923574.737    21923574.927    21923581.176   117152949.543 7  91118996.019 7
      2158.171        1678.579          46.000          44.000
  21827942.934    21827943.012    21827947.092   116805745.330 8  90848948.858 7
       850.064         661.159          48.000          45.000
  22626026.837    22626026.844    22626029.446   121161365.602 7  94236666.506 7
     -1176.114        -914.750          47.000          45.000
  23518819.303    23518817.085    23518821.739   123592245.561 1  96305648.472 1
     -2541.372       -1980.294           3.000           3.000
  22921157.866    22921160.437    22921166.726   122612759.382 5  95365512.080 5
     -2719.785       -2115.382          31.000          32.000
  21730915.074    21730914.771    21730917.248   114196736.112 5  88984486.968 5
     -2638.089       -2055.652          35.000          35.000
  21634517.094    21634517.112    21634519.119   113690169.385 6  88589762.192 6
     -1309.888       -1020.694          41.000          41.000
  23318890.658    23318890.762    23318895.420   122541609.489 5  95486968.036 4
      -186.991        -145.717          30.000          29.000
  21847149.985    21847148.741    21847149.126   114807567.945 6  89460464.815 6
      1387.821        1081.422          38.000          38.000
  20168373.321    20168373.707    20168379.056   105985558.903 8  82586170.040 8
      -609.031        -474.569          48.000          48.000
  21809286.978    21809286.606    21809293.709   116583168.955 7  90675794.766 6
      1971.599        1533.467          47.000          40.000
  22292841.400    22292839.897    22292844.258   117149736.086 5  91285459.358 5
      2665.950        2077.365          33.000          33.000
  24031417.026    24031416.692    24031419.138   126285951.532 4  98404658.555 4
      2845.225        2217.070          25.000          25.000
  21857998.569    21857998.288    21858003.107   116720510.794 7  90782649.449 7
     -4624.772       -3597.041          43.000          44.000
  23706715.593    23706779.674                   126504217.531 3
      3327.954                          21.000
  20526938.197    20526937.755    20526940.519   109766826.292 8  85374240.145 7
     -1286.068       -1000.274          50.000          43.000
  19787793.132    19787792.717    19787799.175   105480090.725 8  82040101.267 7
     -1433.319       -1114.801          48.000          44.000
 14 12  9  0 15 30.0000000  0 16R15R17R08G20G28G17G24G02G06R01G10G12 -.000272133
                                R13R02R24R14
  21911514.560    21911514.907    21911520.816   117088502.722 7  91068870.714 7
      2138.232        1663.070          46.000          44.000
  21823189.991    21823189.676    21823193.944   116780307.958 8  90829164.264 7
       845.750         657.806          48.000          45.000
  22632680.311    22632680.223    22632683.386   121196996.796 7  94264379.603 7
     -1199.347        -932.821          46.000          44.000
  23533367.759    23533368.376    23533371.746   123668710.069 1  96365231.118 1
     -2556.325       -1991.932           1.000           1.000
  21746011.944    21746011.572    21746014.144   114276071.346 5  89046306.565 5
     -2651.020       -2065.730          35.000          35.000
  21642002.635    21642002.707    21642004.761   113729505.635 6  88620413.776 6
     -1312.614       -1022.815          41.000          41.000
  23320006.354    23320005.917    23320010.972   122547471.062 5  95491535.478 4
      -203.875        -158.862          30.000          29.000
  21839254.861    21839254.094    21839254.862   114766082.691 6  89428138.643 6
      1377.768        1073.586          39.000          39.000
  20171891.276    20171891.667    20171897.050   106004046.030 8  82600575.584 8
      -623.520        -485.860          48.000          48.000
  21798263.851    21798263.733    21798271.523   116524247.098 7  90629966.634 6
      1956.427        1521.666          47.000          40.000
  22277643.071    22277641.379    22277645.491   117069865.372 5  91223222.419 5
      2658.661        2071.692          33.000          33.000
  24015179.256    24015178.280    24015179.973   126200615.953 4  98338163.285 4
      2843.717        2215.892          24.000          24.000
  21884004.220    21884003.206    21884008.419   116859377.828 7  90890657.098 7
     -4633.103       -3603.521          43.000          44.000
  23687998.337    23688050.415                   126404314.691 4
      3332.352                          29.000
  20534160.426    20534160.094    20534162.832   109805447.896 8  85404279.159 7
     -1288.823       -1002.422          50.000          43.000
  19795935.743    19795934.855    19795941.575   105523492.831 8  82073858.437 7
     -1460.229       -1135.733          48.000          44.000
 14 12  9  0 16  0.0000000  0 16R15R17R08G20G28G17G24G02G06R01G10G12 -.000262405
                                R13R02R24R14
  21899568.511    21899568.944    21899574.392   117024664.459 7  91019218.717 7
      2118.103        1647.415          47.000          44.000
  21818461.881    21818462.021    21818465.515   116755008.237 8  90809486.732 7
       841.419         654.437          48.000          46.000
  22639465.390    22639466.266    22639469.109   121233334.858 7  94292642.510 7
     -1222.670        -950.962          45.000          43.000
  23548007.200    23548003.804    23548008.582   123745630.317 1  96425168.889 1
     -2571.033       -2003.393           2.000           1.000
  21761184.444    21761183.812    21761186.264   114355803.301 5  89108435.290 5
     -2663.948       -2075.804          35.000          35.000
  21649505.445    21649505.394    21649507.402   113768931.950 7  88651135.547 7
     -1315.330       -1024.935          42.000          42.000
  23321218.809    23321219.685    23321224.254   122553846.696 5  95496503.490 4
      -220.663        -171.946          30.000          29.000
  21831419.867    21831418.938    21831419.867   114724908.769 6  89396055.072 6
      1367.659        1065.704          38.000          39.000
  20175493.404    20175493.839    20175499.204   106022975.924 8  82615326.137 7
      -637.969        -497.120          48.000          47.000
  21787328.449    21787328.642    21787335.811   116465791.702 7  90584501.298 6
      1941.070        1509.726          46.000          40.000
  22262486.494    22262485.569    22262490.330   116990223.854 5  91161164.077 5
      2651.228        2065.893          33.000          33.000
  23998951.274    23998949.625    23998951.543   126115335.281 4  98271710.824 4
      2842.123        2214.641          24.000          24.000
  21910057.035    21910056.350    21910062.296   116998500.993 7  90998863.924 7
     -4641.306       -3609.902          43.000          44.000
  23669250.782    23669313.419                   126304289.683 4
      3336.631                          28.000
  20541399.686    20541399.276    20541402.638   109844160.200 8  85434388.706 7
     -1291.531       -1004.523          50.000          43.000
  19804230.371    19804229.667    19804236.544   105567709.609 8  82108249.242 7
     -1487.028       -1156.577          48.000          44.000
 14 12  9  0 16 30.0000000  0 15R15R17R08G28G17G24G02G06R01G10G12R13 -.000252678
                                R02R24R14
  21887736.718    21887736.951    21887742.972   116961441.557 7  90970045.339 7
      2097.208        1631.163          46.000          44.000
  21813760.582    21813759.973    21813763.784   116729847.550 8  90789917.337 7
       836.434         650.557          48.000          45.000
  22646384.402    22646384.752    22646387.363   121270381.739 7  94321456.712 7
     -1246.665        -969.629          44.000          42.000
  21776433.202    21776432.042    21776435.080   114435933.263 5  89170874.149 5
     -2677.585       -2086.433          34.000          34.000
  21657025.397    21657025.399    21657027.580   113808451.059 6  88681929.622 6
     -1318.807       -1027.641          41.000          41.000
  23322530.528    23322530.823    23322535.776   122560738.052 5  95501873.363 5
      -238.233        -185.638          30.000          30.000
  21823644.271    21823643.524    21823644.451   114684048.591 6  89364215.974 6
      1356.814        1057.255          38.000          38.000
  20179180.445    20179180.659    20179185.825   106042349.497 7  82630422.421 7
      -653.105        -508.913          47.000          47.000
  21776482.670    21776482.399    21776489.359   116407809.487 7  90539404.003 6
      1924.882        1497.128          47.000          40.000
  22247376.187    22247375.121    22247379.676   116910817.221 5  91099288.756 5
      2642.997        2059.474          33.000          33.000
  23982734.079    23982733.091    23982734.599   126030113.810 3  98205304.518 3
      2839.743        2212.781          23.000          23.000
  21936158.776    21936157.986    21936162.962   117137878.413 7  91107268.526 7
     -4650.031       -3616.689          43.000          44.000
  23650483.083    23650544.653                   126204150.940 3
      3340.688                          20.000
  20548656.575    20548656.216    20548658.888   109882964.623 8  85464569.903 7
     -1294.961       -1007.192          50.000          43.000
  19812678.453    19812677.386    19812684.575   105612741.317 8  82143273.887 7
     -1514.580       -1178.005          48.000          44.000
 14 12  9  0 17  0.0000000  0 15R15R17R08G28G17G24G02G06R01G10G12R13 -.000242953
                                R02R24R14
  21876020.354    21876020.695    21876026.539   116898831.323 7  90921348.484 7
      2076.812        1615.294          46.000          44.000
  21809083.203    21809083.286    21809086.695   116704819.295 8  90770450.949 7
       832.120         647.199          49.000          45.000
  22653434.852    22653434.657    22653437.018   121308131.833 7  94350817.850 6
     -1270.046        -987.812          44.000          40.000
  21791755.011    21791754.765    21791757.727   114516455.252 5  89233618.492 5
     -2690.559       -2096.538          34.000          34.000
  21664562.844    21664562.720    21664564.876   113848058.220 6  88712792.307 6
     -1321.672       -1029.877          41.000          41.000
  23323938.344    23323938.976    23323944.590   122568139.244 5  95507640.511 5
      -255.170        -198.840          30.000          30.000
  21815927.850    21815926.993    21815927.715   114643497.181 6  89332617.474 6
      1346.612        1049.306          38.000          38.000
  20182950.168    20182950.457    20182955.683   106062160.214 7  82645859.335 7
      -667.597        -520.205          47.000          47.000
  21765724.189    21765724.203    21765731.311   116350299.402 7  90494673.910 6
      1909.139        1484.887          47.000          40.000
  22232310.905    22232309.267    22232313.839   116831643.832 5  91037595.191 5
      2635.237        2053.427          33.000          33.000
  23966527.594    23966526.611    23966527.785   125944948.332 3  98138941.759 3
      2837.901        2211.354          23.000          23.000
  21962304.102    21962304.367    21962310.392   117277499.891 7  91215862.934 7
     -4658.008       -3622.893          42.000          45.000
  23631694.993    23631756.753                   126103895.937 3
      3341.534                          18.000
  20555929.639    20555929.243    20555931.903   109921854.745 8  85494817.752 7
     -1297.678       -1009.302          51.000          43.000
  19821276.909    19821276.778    19821283.913   105658580.757 8  82178926.763 7
     -1541.396       -1198.865          48.000          44.000
 14 12  9  0 17 30.0000000  0 15R15R17R08G28G17G24G02G06R01G10G12R13 -.000233227
                                R02R24R14
  21864420.930    21864420.738    21864426.778   116836846.512 7  90873138.069 7
      2055.810        1598.962          46.000          44.000
  21804432.067    21804432.233    21804435.995   116679931.422 8  90751093.735 7
       827.385         643.519          49.000          46.000
  22660616.855    22660617.268    22660619.075   121346594.390 7  94380733.132 6
     -1293.834       -1006.315          42.000          39.000
  21807154.469    21807154.021    21807157.201   114597377.150 5  89296674.448 5
     -2703.962       -2106.981          34.000          35.000
  21672118.613    21672118.293    21672120.550   113887763.000 7  88743731.055 7
     -1325.007       -1032.468          42.000          42.000
  23325445.363    23325446.168    23325451.245   122576058.725 4  95513811.532 4
      -272.533        -212.370          29.000          29.000
  21808272.570    21808271.027    21808271.590   114603264.128 6  89301267.040 6
      1335.893        1040.955          38.000          38.000
  20186804.513    20186804.922    20186810.192   106082415.850 8  82661642.933 7
      -682.449        -531.778          48.000          47.000
  21755056.422    21755055.859    21755062.993   116293274.474 7  90450321.165 6
      1892.799        1472.178          47.000          40.000
  22217290.856    22217289.458    22217294.009   116752716.083 5  90976093.025 5
      2626.882        2046.920          33.000          33.000
  23950333.572    23950333.064    23950334.098   125859849.865 3  98072631.265 3
      2835.560        2209.521          22.000          23.000
  21988497.752    21988498.057    21988503.773   117417369.983 7  91324650.698 7
     -4666.342       -3629.373          43.000          44.000
  23612889.862    23612942.727                   126003537.655 3
      3347.056                          23.000
  20563219.624    20563219.268    20563221.775   109960838.771 8  85525138.650 7
     -1300.898       -1011.812          51.000          43.000
  19830029.665    19830029.037    19830036.309   105705235.505 8  82215213.770 7
     -1568.616       -1220.036          48.000          44.000
 14 12  9  0 18  0.0000000  0 15R15R17R08G28G17G24G02G06R01G10G12R13 -.000223505
                                R02R24R14
  21852935.684    21852936.029    21852942.599   116775477.017 7  90825406.233 7
      2035.684        1583.309          46.000          44.000
  21799804.544    21799805.102    21799808.126   116655170.033 8  90731834.899 7
       823.662         640.628          49.000          46.000
  22667931.367    22667929.997    22667932.801   121385755.948 6  94411192.092 6
     -1316.731       -1024.126          40.000          38.000
  21822627.220    21822627.004    21822630.018   114678685.971 5  89360031.899 5
     -2716.406       -2116.672          35.000          35.000
  21679689.878    21679689.957    21679692.257   113927553.078 6  88774736.274 6
     -1327.427       -1034.356          41.000          41.000
  23327048.571    23327048.795    23327054.472   122584483.185 5  95520376.023 5
      -288.879        -225.099          30.000          30.000
  21800674.125    21800673.247    21800673.674   114563336.699 6  89270154.755 6
      1326.171        1033.378          39.000          39.000
  20190741.169    20190741.522    20190746.648   106103102.447 7  82677762.350 7
      -696.368        -542.623          47.000          47.000
  21744477.223    21744477.316    21744484.563   116236726.057 8  90406339.046 6
      1877.304        1460.127          48.000          40.000
  22202316.392    22202315.463    22202319.886   116674024.772 5  90914775.087 5
      2619.421        2041.111          33.000          33.000
  23934149.995    23934149.813    23934151.834   125774808.665 3  98006365.362 3
      2834.093        2208.381          22.000          22.000
  22014735.369    22014734.201    22014739.969   117557471.436 7  91433618.417 7
     -4673.513       -3634.952          43.000          44.000
  23594059.195    23594115.325                   125903066.555 5
      3351.271                          30.000
  20570524.850    20570524.221    20570527.312   109999902.769 8  85555521.737 7
     -1303.112       -1013.529          50.000          43.000
  19838932.629    19838931.752    19838938.790   105752691.196 8  82252123.730 7
     -1594.825       -1240.420          48.000          45.000
 14 12  9  0 18 30.0000000  0 15R15R17R08G28G17G24G02G06R01G10G12R13 -.000213783
                                R02R24R14
  21841569.279    21841569.714    21841575.529   116714736.128 7  90778163.318 7
      2013.843        1566.324          46.000          44.000
  21795203.724    21795203.213    21795206.382   116630543.508 8  90712680.958 7
       818.229         636.400          49.000          45.000
  22675374.563    22675375.255    22675378.055   121425625.549 6  94442201.755 6
     -1341.131       -1043.099          39.000          37.000
  21838174.726    21838173.960    21838177.678   114760389.663 5  89423697.053 5
     -2730.413       -2127.586          35.000          35.000
  21687280.094    21687279.835    21687282.247   113967438.284 6  88805815.624 6
     -1331.458       -1037.503          41.000          41.000
  23328749.381    23328749.634    23328754.905   122593421.993 5  95527341.320 5
      -306.896        -239.142          30.000          30.000
  21793136.552    21793135.365    21793135.989   114523724.453 6  89239288.072 6
      1314.798        1024.519          39.000          39.000
  20194761.119    20194761.635    20194766.709   106124227.963 8  82694223.781 8
      -711.844        -554.683          48.000          48.000
  21733991.353    21733990.728    21733998.076   116180667.825 8  90362738.170 6
      1860.063        1446.718          48.000          40.000
  22187388.763    22187387.805    22187392.896   116595582.168 5  90853650.949 5
      2610.212        2033.929          33.000          33.000
  23917979.925    23917979.896    23917983.164   125689835.691 3  97940152.657 3
      2830.934        2205.905          22.000          22.000
  22041016.107    22041015.285    22041020.538   117697809.188 7  91542769.924 7
     -4682.213       -3641.720          43.000          44.000
  23575224.298    23575267.313                   125802498.578 6
      3353.562                          39.000
  20577846.574    20577846.325    20577848.700   110039055.289 8  85585973.674 7
     -1306.951       -1016.518          50.000          43.000
  19847986.675    19847985.837    19847993.066   105800954.707 8  82289661.987 7
     -1622.601       -1262.020          48.000          44.000
 14 12  9  0 19  0.0000000  0 15R15R17R08G28G17G24G02G06R01G10G12R13 -.000204055
                                R02R24R14
  21830322.286    21830322.706    21830328.742   116654637.038 7  90731419.568 7
      1992.549        1549.759          46.000          43.000
  21790628.038    21790627.796    21790631.363   116606060.288 8  90693638.463 7
       813.692         632.867          49.000          46.000
  22682954.794    22682955.285    22682957.343   121466212.797 6  94473769.600 5
     -1364.844       -1061.545          38.000          35.000
  21853800.127    21853799.103    21853802.263   114842497.230 5  89487676.906 5
     -2743.695       -2137.934          35.000          35.000
  21694889.883    21694889.765    21694892.146   114007428.485 6  88836976.785 6
     -1334.801       -1040.106          41.000          41.000
  23330550.128    23330550.287    23330555.945   122602883.449 5  95534713.880 5
      -324.110        -252.547          30.000          30.000
  21785659.932    21785659.316    21785659.879   114484437.053 6  89208674.510 6
      1304.104        1016.183          39.000          39.000
  20198866.504    20198866.902    20198871.843   106145800.687 8  82711033.684 7
      -726.574        -566.163          48.000          47.000
  21723598.300    21723598.115    21723605.397   116125113.743 8  90319529.418 6
      1843.340        1433.712          48.000          40.000
  22172511.694    22172510.789    22172515.360   116517401.470 5  90792730.903 5
      2601.577        2027.205          33.000          33.000
  23901826.131    23901825.523    23901827.933   125604942.202 3  97874001.866 3
      2828.351        2203.906          22.000          22.000
  22067343.110    22067341.587    22067346.837   117838388.596 7  91652109.371 7
     -4690.012       -3647.787          43.000          44.000
  23556348.652    23556404.479                   125701843.594 6
      3356.609                          36.000
  20585186.477    20585186.001    20585188.846   110078305.011 8  85616501.216 7
     -1309.992       -1018.883          50.000          43.000
  19857193.451    19857193.257    19857200.378   105850034.146 8  82327834.855 7
     -1649.602       -1283.023          49.000          44.000
 14 12  9  0 19 30.0000000  0 15R15R17R08G28G17G24G02G06R01G10G12R13 -.000194323
                                R02R24R14
  21819196.648    21819196.344    21819201.480   116595176.798 7  90685172.704 7
      1971.213        1533.166          46.000          43.000
  21786078.232    21786078.259    21786081.224   116581713.812 8  90674702.334 7
       809.188         629.366          49.000          45.000
  22690667.668    22690666.680    22690670.930   121507511.732 6  94505890.939 5
     -1388.696       -1080.098          36.000          34.000
  21869499.831    21869499.083    21869502.966   114925002.074 5  89551966.332 5
     -2756.904       -2148.231          35.000          35.000
  21702518.549    21702518.675    21702521.047   114047518.587 6  88868215.788 6
     -1338.109       -1042.685          41.000          41.000
  23332449.909    23332449.041    23332454.826   122612861.945 5  95542489.314 5
      -341.328        -265.975          30.000          30.000
  21778244.859    21778243.978    21778244.626   114445469.061 6  89178309.835 6
      1293.479        1007.905          40.000          40.000
  20203055.544    20203055.910    20203060.804   106167813.676 8  82728186.652 8
      -741.188        -577.550          48.000          48.000
  21713299.835    21713299.507    21713306.479   116070062.117 8  90276711.475 6
      1826.528        1420.633          48.000          39.000
  22157683.934    22157682.693    22157687.458   116439480.248 5  90732013.028 5
      2592.885        2020.433          33.000          33.000
  23885685.861    23885685.321    23885688.516   125520126.170 3  97807911.459 3
      2825.822        2201.933          23.000          23.000
  22093712.184    22093710.834    22093716.806   117979199.683 7  91761629.021 7
     -4697.694       -3653.761          43.000          45.000
  23537480.532    23537523.055                   125601103.654 5
      3359.339                          34.000
  20592543.429    20592542.720    20592545.812   110117645.488 8  85647099.333 7
     -1312.990       -1021.212          50.000          44.000
  19866552.506    19866552.104    19866559.373   105899921.973 8  82366636.476 7
     -1676.530       -1303.968          49.000          45.000
 14 12  9  0 20  0.0000000  0 15R15R17R08G28G17G24G02G06R01G10G12R13 -.000184594
                                R02R24R14
  21808187.211    21808187.526    21808192.989   116536350.743 7  90639419.093 7
      1950.132        1516.768          46.000          43.000
  21781551.926    21781551.920    21781555.903   116557494.369 8  90655864.991 7
       805.061         626.156          49.000          45.000
  22698511.039    22698510.637    22698513.652   121549513.492 6  94538558.986 5
     -1411.874       -1098.119          36.000          33.000
  21885273.973    21885273.286    21885276.752   115007895.107 5  89616558.238 5
     -2769.716       -2158.225          34.000          34.000
  21710165.162    21710165.021    21710167.465   114087700.733 6  88899526.500 6
     -1341.107       -1045.019          41.000          41.000
  23334444.071    23334444.013    23334450.157   122623348.531 4  95550660.660 4
      -358.202        -279.127          29.000          29.000
  21770888.195    21770887.822    21770888.663   114406812.601 6  89148187.912 6
      1283.222         999.913          40.000          39.000
  20207326.616    20207326.893    20207331.723   106190257.469 8  82745675.314 8
      -755.432        -588.648          48.000          48.000
  21703094.977    21703094.484    21703101.009   116015508.723 8  90234281.047 6
      1809.939        1407.733          48.000          39.000
  22142903.442    22142902.796    22142907.793   116361813.720 5  90671493.636 5
      2584.443        2013.846          33.000          33.000
  23869559.397    23869559.043    23869562.043   125435381.008 3  97741876.267 3
      2823.423        2200.075          23.000          23.000
  22120121.529    22120120.956    22120127.571   118120229.284 7  91871318.636 7
     -4704.748       -3659.241          42.000          45.000
  23518576.391    23518577.916    23518594.593   125499648.295 7  97610854.069 6
      3362.403        2615.202          43.000          36.000
  20599915.387    20599914.603    20599917.705   110157067.256 8  85677760.683 7
     -1315.530       -1023.191          49.000          43.000
  19876060.643    19876060.287    19876067.891   105950607.460 8  82406058.491 7
     -1702.948       -1324.517          49.000          45.000
 14 12  9  0 20 30.0000000  0 15R15R17R08G28G17G24G02G06R01G10G12R13 -.000174863
                                R02R24R14
  21797298.221    21797299.269    21797304.724   116478167.369 7  90594165.342 7
      1928.385        1499.855          46.000          43.000
  21777051.066    21777050.806    21777054.302   116533407.484 8  90637130.742 7
       800.401         622.530          49.000          45.000
  22706483.782    22706485.763    22706490.272   121592223.805 5  94571778.056 5
     -1435.785       -1116.711          32.000          31.000
  21901123.479    21901122.460    21901125.793   115091181.988 5  89681457.030 5
     -2783.117       -2168.661          35.000          35.000
  21717830.133    21717830.045    21717832.536   114127981.749 6  88930914.265 6
     -1344.670       -1047.792          41.000          41.000
  23336537.869    23336538.081    23336543.686   122634349.336 5  95559232.702 5
      -375.607        -292.681          30.000          30.000
  21763592.977    21763591.996    21763592.746   114368474.110 6  89118313.751 6
      1272.315         991.416          39.000          39.000
  20211680.392    20211680.723    20211685.627   106213137.025 8  82763503.522 7
      -770.196        -600.150          48.000          47.000
  21692984.510    21692984.004    21692990.745   115961463.980 8  90192246.229 6
      1792.604        1394.246          48.000          38.000
  22128175.167    22128174.160    22128178.277   116284411.837 5  90611180.458 5
      2575.344        2006.758          33.000          33.000
  23853447.927    23853448.379    23853450.263   125350715.737 4  97675903.329 4
      2820.477        2197.781          24.000          24.000
  22146573.083    22146572.358    22146579.647   118261479.428 7  91981179.767 7
     -4712.307       -3665.128          42.000          45.000
  23499670.224    23499667.273    23499673.133   125398734.711 7  97532365.699 6
      3364.771        2617.049          44.000          41.000
  20607303.334    20607302.958    20607306.225   110196576.065 8  85708489.721 7
     -1318.754       -1025.696          49.000          43.000
  19885720.019    19885719.536    19885726.568   106002095.554 8  82446104.762 7
     -1729.940       -1345.509          48.000          45.000
 14 12  9  0 21  0.0000000  0 15R15R17R08G28G17G24G02G06R01G10G12R13 -.000165135
                                R02R24R14
  21786530.144    21786530.634    21786535.886   116420623.518 7  90549408.998 7
      1907.178        1483.362          46.000          43.000
  21772573.098    21772572.956    21772575.626   116509444.324 8  90618492.753 7
       796.495         619.495          48.000          45.000
  22714589.881    22714592.432    22714598.122   121635634.624 5  94605542.054 5
     -1459.034       -1134.810          32.000          31.000
  21917045.338    21917044.691    21917048.175   115174854.043 5  89746655.963 5
     -2795.719       -2178.476          34.000          34.000
  21725512.977    21725512.933    21725515.197   114168354.587 6  88962373.573 6
     -1347.541       -1050.028          41.000          41.000
  23338726.778    23338727.513    23338733.201   122645855.587 5  95568198.600 5
      -392.172        -305.580          30.000          30.000
  21756356.127    21756355.468    21756356.294   114330446.122 6  89088681.548 6
      1262.184         983.521          39.000          39.000
  20216115.359    20216115.701    20216120.794   106236443.422 8  82781664.336 8
      -784.230        -611.086          48.000          48.000
  21682968.325    21682968.376    21682975.493   115907924.191 8  90150604.148 6
      1775.959        1381.304          48.000          39.000
  22113496.002    22113494.481    22113499.209   116207270.332 5  90551070.166 5
      2566.752        2000.070          34.000          34.000
  23837350.714    23837350.753    23837352.669   125266124.518 4  97609988.103 4
      2818.165        2195.961          25.000          24.000
  22173063.427    22173063.058    22173070.271   118402938.331 7  92091203.279 7
     -4718.960       -3670.297          42.000          45.000
  23480739.256    23480740.177    23480746.280   125297736.355 7  97453811.408 6
      3367.693        2619.325          44.000          41.000
  20614706.440    20614705.968    20614709.170   110236162.865 8  85739279.425 7
     -1321.100       -1027.520          49.000          43.000
  19895527.574    19895527.192    19895534.339   106054375.938 8  82486767.256 7
     -1756.092       -1365.846          48.000          44.000
 14 12  9  0 21 30.0000000  0 15R15R17R08G28G17G24G02G06R01G10G12R13 -.000155404
                                R02R24R14
  21775882.989    21775883.780    21775889.591   116363730.330 7  90505158.729 7
      1885.563        1466.548          46.000          43.000
  21768118.868    21768119.226    21768122.561   116485612.626 8  90599957.004 7
       792.215         616.166          48.000          45.000
  22722828.674    22722831.487    22722837.060   121679754.344 5  94639857.342 5
     -1482.351       -1152.939          30.000          30.000
  21933042.544    21933042.027    21933045.328   115258919.023 5  89812161.060 5
     -2808.651       -2188.557          35.000          34.000
  21733215.536    21733215.362    21733217.158   114208828.813 6  88993911.893 6
     -1350.834       -1052.596          41.000          41.000
  23341015.044    23341015.104    23341020.549   122657875.638 5  95577564.850 5
      -409.196        -318.857          30.000          30.000
  21749180.884    21749179.903    21749180.633   114292737.755 6  89059298.397 6
      1251.622         975.292          39.000          39.000
  20220632.939    20220633.292    20220638.590   106260184.014 8  82800163.487 8
      -798.576        -622.266          48.000          48.000
  21673050.288    21673049.464    21673056.480   115854902.700 8  90109365.193 6
      1758.718        1367.890          49.000          39.000
  22098868.141    22098867.339    22098871.758   116130401.161 5  90491172.084 5
      2557.723        1993.038          34.000          34.000
  23821269.514    23821268.991    23821272.334   125181618.356 4  97544139.150 4
      2815.404        2193.845          25.000          25.000
  22199594.864    22199594.387    22199600.265   118544609.979 7  92201392.249 7
     -4725.862       -3675.661          42.000          45.000
  23461798.261    23461799.076    23461805.387   125196666.081 7  97375201.166 6
      3370.159        2621.242          44.000          41.000
  20622125.888    20622125.163    20622128.569   110275835.986 8  85770136.260 7
     -1323.854       -1029.659          50.000          43.000
  19905484.738    19905484.584    19905491.578   106107455.496 8  82528051.325 7
     -1782.626       -1386.488          48.000          44.000
 14 12  9  0 22  0.0000000  0 15R15R17R08G28G17G24G02G06R01G10G12R13 -.000145671
                                R02R24R14
  21765359.426    21765359.857    21765365.276   116307492.031 7  90461417.813 7
      1863.831        1449.647          46.000          43.000
  21763689.375    21763689.377    21763693.448   116461912.284 8  90581523.418 7
       787.998         612.885          48.000          45.000
  22731204.630    22731205.144    22731204.686   121724583.194 5  94674724.207 5
     -1506.054       -1171.393          30.000          30.000
  21949114.397    21949114.041    21949116.800   115343376.904 5  89877972.313 5
     -2821.667       -2198.700          34.000          34.000
  21740937.053    21740936.670    21740938.791   114249405.541 6  89025530.074 6
     -1354.144       -1055.172          41.000          41.000
  23343400.457    23343400.207    23343405.820   122670409.498 5  95587331.480 5
      -426.237        -332.129          30.000          30.000
  21742066.094    21742065.185    21742065.811   114255349.987 6  89030165.065 6
      1241.038         967.043          39.000          39.000
  20225233.035    20225233.469    20225238.732   106284358.326 8  82819000.595 8
      -812.893        -633.419          48.000          48.000
  21663228.368    21663228.442    21663235.811   115802404.152 8  90068532.976 6
      1741.297        1354.343          48.000          39.000
  22084292.262    22084291.880    22084296.153   116053808.676 5  90431489.606 5
      2548.564        1985.892          34.000          34.000
  23805205.649    23805205.442    23805207.301   125097201.030 4  97478359.434 4
      2812.597        2191.628          25.000          25.000
  22226163.961    22226164.528    22226169.860   118686491.022 7  92311744.078 7
     -4732.637       -3680.940          42.000          45.000
  23442846.197    23442846.578    23442853.271   125095528.498 7  97296538.571 6
      3372.387        2622.969          44.000          41.000
  20629561.543    20629560.521    20629563.346   110315595.526 8  85801060.320 7
     -1326.583       -1031.787          50.000          43.000
  19915592.265    19915591.673    19915599.201   106161333.099 7  82569956.097 7
     -1809.095       -1407.073          47.000          44.000
 14 12  9  0 22 30.0000000  0 14R15R17G28G17G24G02G06R01G10G12R13R02 -.000135936
                                R24R14
  21754958.152    21754958.349    21754963.681   116251908.196 7  90418185.924 7
      1841.694        1432.431          47.000          44.000
  21759284.244    21759283.853    21759288.519   116438338.412 7  90563188.199 7
       783.562         609.437          47.000          45.000
  21965260.245    21965259.436    21965262.555   115428223.055 5  89944086.115 5
     -2834.809       -2208.939          34.000          34.000
  21748677.273    21748677.260    21748679.252   114290081.611 6  89057225.668 7
     -1357.683       -1057.931          41.000          42.000
  23345882.234    23345882.430    23345888.109   122683453.143 5  95597495.341 5
      -443.458        -345.538          30.000          30.000
  21735011.522    21735010.753    21735011.439   114218279.265 6  89001278.780 6
      1230.256         958.644          39.000          39.000
  20229914.913    20229915.263    20229920.569   106308961.231 8  82838171.672 8
      -827.398        -644.724          48.000          48.000
  21653506.385    21653505.880    21653513.346   115750429.065 8  90028107.886 6
      1723.562        1340.551          49.000          40.000
  22069771.108    22069770.010    22069773.743   115977492.360 5  90372022.319 5
      2539.079        1978.501          34.000          35.000
  23789158.505    23789157.476    23789160.388   125012871.045 4  97412647.766 4
      2809.390        2189.126          26.000          26.000
  22252773.052    22252771.979    22252777.192   118828573.219 7  92422252.358 7
     -4739.567       -3686.329          43.000          44.000
  23423880.736    23423879.323    23423887.153   124994323.869 7  97217823.819 6
      3374.431        2624.563          43.000          41.000
  20637011.842    20637011.292    20637013.537   110355436.660 8  85832047.840 7
     -1329.572       -1034.107          50.000          43.000
  19925848.364    19925847.595    19925855.018   106216002.912 8  82612477.035 7
     -1835.644       -1427.721          48.000          44.000
 14 12  9  0 23  0.0000000  0 14R15R17G28G17G24G02G06R01G10G12R13R02 -.000126201
                                R24R14
  21744679.112    21744679.664    21744684.834   116196981.314 7  90375464.997 7
      1819.708        1415.329          47.000          44.000
  21754902.812    21754902.843    21754905.852   116414889.589 8  90544950.245 7
       779.329         606.141          48.000          46.000
  21981479.744    21981479.129    21981481.821   115513455.883 5  90010501.210 5
     -2847.731       -2219.006          34.000          34.000
  21756436.580    21756436.636    21756438.885   114330857.043 7  89088998.683 7
     -1361.049       -1060.557          42.000          42.000
  23348461.423    23348461.257    23348466.225   122697005.117 4  95608055.320 4
      -460.406        -358.760          29.000          29.000
  21728017.538    21728016.606    21728017.331   114181525.002 6  88972639.088 6
      1219.653         950.378          39.000          39.000
  20234677.926    20234678.318    20234683.594   106333990.922 8  82857675.308 8
      -841.619        -655.808          48.000          48.000
  21643881.583    21643881.324    21643888.522   115698980.684 8  89988092.470 6
      1705.890        1326.805          48.000          40.000
  22055300.701    22055300.181    22055304.697   115901455.341 5  90312772.662 5
      2529.676        1971.180          34.000          35.000
  23773128.328    23773127.191    23773129.814   124928629.370 4  97347004.925 4
      2806.320        2186.739          26.000          26.000
  22279415.499    22279415.554    22279421.421   118970851.684 7  92532913.306 7
     -4746.042       -3691.364          42.000          44.000
  23404903.570    23404902.332    23404909.459   124893055.794 7  97139059.740 6
      3376.407        2626.088          43.000          40.000
  20644477.174    20644476.883    20644479.705   110395358.332 8  85863098.014 7
     -1332.298       -1036.230          50.000          43.000
  19936252.619    19936251.746    19936259.267   106271461.898 8  82655611.768 7
     -1861.991       -1448.214          48.000          43.000
 14 12  9  0 23 30.0000000  0 14R15R17G28G17G24G02G06R01G10G12R13R02 -.000116465
                                R24R14
  21734523.825    21734524.033    21734529.328   116142714.484 7  90333257.456 7
      1798.229        1398.625          46.000          44.000
  21750544.198    21750543.706    21750547.385   116391565.026 7  90526808.952 7
       775.819         603.413          47.000          45.000
  21997771.429    21997771.673    21997774.839   115599075.197 5  90077217.472 5
     -2860.048       -2228.603          33.000          34.000
  21764215.179    21764215.121    21764217.391   114371733.080 7  89120850.090 6
     -1363.824       -1062.719          42.000          41.000
  23351136.825    23351136.598    23351141.939   122711065.413 5  95619011.356 4
      -476.817        -371.560          30.000          29.000
  21721083.754    21721082.863    21721083.664   114145087.890 6  88944246.521 6
      1209.663         942.593          39.000          39.000
  20239522.232    20239522.400    20239527.615   106359446.610 8  82877510.890 8
      -855.224        -666.407          48.000          48.000
  21634355.857    21634355.536    21634363.407   115648063.852 8  89948490.472 6
      1688.706        1313.437          48.000          41.000
  22040886.755    22040885.086    22040889.429   115825701.843 5  90253743.939 5
      2520.736        1964.209          35.000          35.000
  23757113.893    23757114.268    23757116.749   124844480.187 4  97281434.135 4
      2803.770        2184.757          27.000          27.000
  22306095.547    22306094.988    22306101.928   119113322.513 7  92643723.836 7
     -4751.850       -3695.881          42.000          44.000
  23385912.638    23385912.954    23385920.428   124791728.900 7  97060249.911 6
      3378.847        2627.994          43.000          40.000
  20651957.309    20651957.338    20651960.102   110435360.034 8  85894210.417 7
     -1334.345       -1037.824          50.000          43.000
  19946804.039    19946803.371    19946810.766   106327708.408 7  82699359.020 7
     -1887.578       -1468.117          47.000          44.000
 14 12  9  0 24  0.0000000  0 14R15R17G28G17G24G02G06R01G10G12R13R02 -.000106734
                                R24R14
  21724491.626    21724491.595    21724496.940   116089103.294 7  90291559.853 7
      1776.081        1381.398          46.000          44.000
  21746204.877    21746205.785    21746209.986   116368355.393 8  90508757.040 7
       771.765         600.263          48.000          46.000
  22014136.655    22014136.041    22014139.476   115685071.570 5  90144227.537 5
     -2872.832       -2238.568          33.000          33.000
  21772011.543    21772011.122    21772013.634   114412701.994 7  89152773.876 7
     -1367.203       -1065.350          42.000          42.000
  23353907.788    23353907.271    23353912.777   122725625.078 5  95630356.522 5
      -493.615        -384.624          30.000          30.000
  21714208.906    21714208.191    21714208.729   114108959.904 6  88916094.830 6
      1199.113         934.372          39.000          39.000
  20244445.520    20244445.705    20244450.869   106385318.524 8  82897670.802 8
      -869.329        -677.399          48.000          48.000
  21624929.516    21624929.364    21624937.267   115597673.777 7  89909298.172 6
      1670.838        1299.542          47.000          41.000
  22026523.246    22026522.710    22026527.528   115750226.744 5  90194932.140 5
      2511.144        1956.737          35.000          35.000
  23741118.390    23741117.426    23741119.512   124760417.254 4  97215930.555 4
      2800.663        2182.343          27.000          27.000
  22332811.233    22332809.584    22332815.577   119255972.780 7  92754673.934 7
     -4757.955       -3700.633          42.000          44.000
  23366908.755    23366912.244    23366920.004   124690338.730 7  96981390.861 6
      3380.703        2629.439          43.000          40.000
  20659451.521    20659451.130    20659453.761   110475432.768 8  85925378.073 7
     -1336.922       -1039.828          50.000          43.000
  19957501.156    19957500.779    19957508.404   106384731.672 8  82743710.414 7
     -1913.679       -1488.417          48.000          44.000
 14 12  9  0 24 30.0000000  0 14R15R17G28G17G24G02G06R01G10G12R13R02 -.000097004
                                R24R14
  21714582.555    21714583.032    21714587.890   116036153.841 7  90250376.929 7
      1753.750        1364.025          46.000          44.000
  21741892.270    21741892.047    21741894.691   116345263.439 8  90490796.652 7
       767.640         597.053          48.000          46.000
  22030574.082    22030573.505    22030576.544   115771448.297 5  90211533.990 5
     -2885.682       -2248.584          33.000          33.000
  21779825.841    21779825.820    21779828.349   114453768.250 6  89184773.505 7
     -1370.655       -1068.042          41.000          42.000
  23356774.041    23356774.059    23356778.780   122740687.289 5  95642093.299 5
      -510.562        -397.842          30.000          30.000
  21707393.494    21707392.884    21707393.461   114073145.085 6  88888187.165 6
      1188.461         926.074          39.000          39.000
  20249448.573    20249448.767    20249453.782   106411609.178 8  82918157.007 8
      -883.476        -688.425          48.000          48.000
  21615603.712    21615603.195    21615610.502   115547818.687 7  89870521.964 6
      1652.719        1285.444          47.000          41.000
  22012215.568    22012214.126    22012219.149   115675037.155 5  90136342.822 5
      2501.402        1949.149          35.000          35.000
  23725138.333    23725138.857    23725140.574   124676445.823 4  97150498.283 4
      2797.330        2179.733          28.000          28.000
  22359558.480    22359557.438    22359562.996   119398801.961 7  92865763.190 7
     -4764.127       -3705.426          42.000          43.000
  23347906.812    23347901.508    23347909.160   124588893.208 7  96902488.769 6
      3382.254        2630.637          43.000          40.000
  20666959.142    20666958.555    20666961.398   110515579.451 8  85956603.240 7
     -1339.561       -1041.880          50.000          43.000
  19968344.553    19968344.140    19968352.081   106442533.266 7  82788667.172 7
     -1939.782       -1508.718          47.000          44.000
 14 12  9  0 25  0.0000000  0 14R15R17G28G17G24G02G06R01G10G12R13R02 -.000087275
                                R24R14
  21704798.717    21704798.527    21704804.245   115983870.795 7  90209712.326 7
      1731.787        1346.947          46.000          44.000
  21737597.657    21737598.241    21737602.132   116322290.297 8  90472928.682 7
       763.994         594.216          48.000          46.000
  22047082.584    22047082.536    22047085.836   115858205.591 5  90279136.989 5
     -2898.064       -2258.222          32.000          32.000
  21787659.464    21787659.484    21787662.070   114494934.127 7  89216850.768 7
     -1373.682       -1070.400          42.000          42.000
  23359735.287    23359735.590    23359740.542   122756252.574 5  95654222.081 5
      -527.036        -410.684          30.000          30.000
  21700638.207    21700637.243    21700638.461   114037645.615 6  88860525.227 6
      1178.246         918.118          39.000          39.000
  20254531.450    20254531.496    20254536.464   106438318.973 8  82938969.813 8
      -897.125        -699.058          48.000          48.000
  21606378.665    21606378.097    21606385.909   115498504.553 8  89832166.502 7
      1634.930        1271.615          48.000          42.000
  21997962.729    21997961.783    21997966.396   115600138.260 5  90077980.014 5
      2491.934        1941.767          35.000          35.000
  23709178.145    23709178.003    23709179.729   124592570.937 4  97085141.212 4
      2794.347        2177.410          28.000          28.000
  22386339.678    22386338.216    22386343.572   119541807.833 7  92976989.872 7
     -4769.594       -3709.679          42.000          43.000
  23328877.157    23328882.119    23328888.289   124487398.242 7  96823548.246 6
      3384.106        2632.079          44.000          40.000
  20674480.416    20674480.283    20674483.212   110555801.378 8  85987886.936 7
     -1341.794       -1043.617          49.000          43.000
  19979334.504    19979333.802    19979341.161   106501112.863 8  82834229.041 7
     -1965.438       -1528.669          48.000          44.000
 14 12  9  0 25 30.0000000  0 14R15R17G28G17G24G02G06R01G10G12R13R02 -.000077544
                                R24R14
  21695140.747    21695141.479    21695146.354   115932262.411 7  90169572.451 7
      1709.211        1329.386          47.000          44.000
  21733328.023    21733327.891    21733331.577   116299439.370 8  90455155.767 7
       759.913         591.044          48.000          46.000
  22063666.466    22063665.152    22063668.485   115945347.305 5  90347039.541 5
     -2910.883       -2268.223          32.000          32.000
  21795513.195    21795512.966    21795515.693   114536204.617 7  89249009.553 7
     -1377.203       -1073.143          42.000          42.000
  23362794.535    23362793.935    23362799.276   122772325.392 5  95666746.324 5
      -543.990        -423.890          30.000          30.000
  21693943.520    21693942.678    21693944.120   114002465.790 6  88833112.359 6
      1167.560         909.787          39.000          40.000
  20259694.103    20259694.501    20259699.523   106465451.176 8  82960111.772 8
      -911.204        -710.031          48.000          48.000
  21597255.218    21597255.524    21597263.353   115449739.690 8  89794238.245 6
      1616.518        1257.288          48.000          41.000
  21983767.137    21983765.537    21983770.759   115525538.260 5  90019850.115 5
      2481.895        1933.947          34.000          35.000
  23693237.191    23693236.537    23693238.402   124508800.259 4  97019865.369 4
      2790.858        2174.697          28.000          28.000
  22413151.988    22413151.331    22413157.230   119684990.835 7  93088354.311 7
     -4775.436       -3714.227          42.000          43.000
  23309858.855    23309855.452    23309860.078   124385862.825 7  96744576.267 6
      3385.376        2633.065          45.000          39.000
  20682016.975    20682016.713    20682019.634   110596102.484 8  86019232.204 7
     -1344.476       -1045.703          49.000          43.000
  19990470.172    19990469.650    19990477.031   106560472.401 8  82880397.535 7
     -1991.380       -1548.851          48.000          44.000
 14 12  9  0 26  0.0000000  0 14R15R17G28G17G24G02G06R01G10G12R13R02 -.000067816
                                R24R14
  21685608.607    21685608.610    21685613.605   115881323.590 7  90129953.344 7
      1686.512        1311.732          47.000          44.000
  21729078.744    21729078.686    21729081.989   116276701.442 8  90437470.738 7
       755.811         587.854          49.000          46.000
  22080320.138    22080319.247    22080322.533   116032864.205 5  90415234.427 5
     -2923.739       -2278.238          32.000          33.000
  21803385.213    21803385.025    21803387.804   114577572.305 7  89281244.071 7
     -1380.806       -1075.948          42.000          42.000
  23365947.279    23365947.137    23365953.048   122788896.197 5  95679658.624 5
      -560.918        -437.082          30.000          30.000
  21687308.400    21687307.629    21687308.636   113967597.359 6  88805942.135 6
      1156.818         901.416          39.000          39.000
  20264935.586    20264936.021    20264941.168   106492996.094 8  82981575.320 7
      -925.293        -721.005          48.000          47.000
  21588235.072    21588234.865    21588243.020   115401519.798 7  89756733.848 6
      1597.949        1242.850          47.000          41.000
  21969626.959    21969625.438    21969630.394   115451232.591 5  89961949.570 5
      2471.649        1925.961          34.000          34.000
  23677313.854    23677314.065    23677315.578   124425127.296 4  96954665.660 4
      2787.148        2171.806          28.000          28.000
  22439996.963    22439995.840    22440001.561   119828338.021 7  93199846.443 7
     -4781.194       -3718.703          42.000          44.000
  23290817.622    23290819.475    23290824.161   124284282.437 7  96665569.316 6
      3386.499        2633.941          45.000          39.000
  20689566.561    20689566.250    20689569.804   110636473.694 8  86050631.995 7
     -1347.142       -1047.775          49.000          43.000
  20001750.325    20001749.842    20001757.321   106620601.001 8  82927164.186 7
     -2017.339       -1569.037          48.000          44.000
 14 12  9  0 26 30.0000000  0 14R15R17G28G17G24G02G06R01G10G12R13R02 -.000058085
                                R24R14
  21676202.609    21676203.099    21676208.645   115831065.095 7  90090863.384 7
      1663.602        1293.913          47.000          44.000
  21724851.623    21724851.801    21724855.649   116254083.265 8  90419878.830 7
       751.622         584.594          49.000          46.000
  22097047.173    22097045.995    22097049.289   116120763.104 5  90483726.988 5
     -2936.669       -2288.309          32.000          32.000
  21811277.450    21811277.395    21811279.897   114619046.101 7  89313561.271 7
     -1384.538       -1078.857          42.000          42.000
  23369197.195    23369197.185    23369202.261   122805972.797 5  95692965.038 5
      -577.954        -450.352          30.000          30.000
  21680733.569    21680733.435    21680734.333   113933048.727 6  88779021.106 6
      1145.970         892.966          40.000          39.000
  20270257.072    20270257.425    20270262.620   106520960.147 8  83003365.471 7
      -939.416        -732.013          48.000          47.000
  21579319.266    21579318.841    21579326.608   115353856.889 8  89719662.668 7
      1579.148        1228.225          48.000          42.000
  21955544.958    21955544.236    21955548.238   115377232.171 5  89904286.885 5
      2461.239        1917.846          34.000          34.000
  23661412.640    23661411.968    23661414.181   124341562.191 4  96889549.993 4
      2783.379        2168.863          27.000          27.000
  22466872.851    22466871.770    22466877.878   119971853.122 7  93311469.177 7
     -4786.880       -3723.129          42.000          44.000
  23271777.876    23271777.249    23271782.129   124182669.549 7  96586537.082 6
      3387.242        2634.519          45.000          39.000
  20697130.958    20697130.543    20697133.558   110676922.240 8  86082091.934 7
     -1349.907       -1049.925          49.000          43.000
  20013175.718    20013175.350    20013182.484   106681504.533 8  82974533.570 7
     -2043.304       -1589.239          48.000          44.000
 14 12  9  0 27  0.0000000  0 14R15R17G28G17G24G02G06R01G10G12R13R02 -.000048357
                                R24R14
  21666924.472    21666924.601    21666929.971   115781482.565 7  90052299.169 7
      1641.521        1276.738          47.000          44.000
  21720645.515    21720645.290    21720649.744   116231577.094 8  90402374.044 7
       748.399         582.086          48.000          46.000
  22113844.520    22113843.785    22113847.393   116209035.956 5  90552510.928 5
     -2948.579       -2297.594          33.000          33.000
  21819188.246    21819188.421    21819190.996   114660619.111 7  89345955.774 6
     -1387.394       -1081.089          42.000          41.000
  23372540.947    23372541.081    23372546.663   122823546.671 5  95706658.933 5
      -594.049        -462.904          30.000          30.000
  21674219.346    21674218.605    21674219.290   113898813.002 6  88752343.900 6
      1136.017         885.208          39.000          39.000
  20275656.460    20275656.935    20275662.245   106549335.048 8  83025475.757 8
      -952.635        -742.314          48.000          48.000
  21570506.380    21570506.140    21570513.604   115306747.632 8  89683022.106 7
      1561.092        1214.183          48.000          42.000
  21941521.085    21941519.262    21941523.873   115303533.527 5  89846859.347 5
      2451.598        1910.331          34.000          34.000
  23645528.849    23645529.845    23645531.995   124258100.658 4  96824515.032 4
      2780.347        2166.498          29.000          29.000
  22493778.256    22493777.042    22493782.886   120115524.516 7  93423213.466 7
     -4791.550       -3726.758          42.000          44.000
  23252730.018    23252727.651    23252733.207   124081020.936 7  96507477.028 6
      3388.918        2635.830          46.000          40.000
  20704707.499    20704707.148    20704710.746   110717440.299 8  86113605.940 7
     -1351.738       -1051.354          49.000          44.000
  20024745.101    20024744.266    20024751.442   106743173.292 8  83022498.123 7
     -2068.344       -1608.711          48.000          44.000
 14 12  9  0 27 30.0000000  0 14R15R17G28G17G24G02G06R01G10G12R13R02 -.000038630
                                R24R14
  21657772.466    21657773.256    21657778.327   115732580.640 7  90014264.311 7
      1618.946        1259.181          46.000          43.000
  21716462.241    21716461.713    21716465.367   116209184.554 8  90384957.631 7
       744.804         579.294          49.000          46.000
  22130712.693    22130713.031    22130716.565   116297684.527 5  90621587.636 5
     -2960.927       -2307.208          32.000          32.000
  21827119.090    21827119.071    21827121.738   114702295.019 6  89378430.446 6
     -1390.631       -1083.607          41.000          41.000
  23375980.918    23375980.863    23375986.098   122841620.532 5  95720742.430 5
      -610.540        -475.747          30.000          30.000
  21667764.553    21667763.848    21667764.582   113864893.058 6  88725912.759 6
      1125.703         877.173          40.000          40.000
  20281134.332    20281134.810    20281140.307   106578122.209 8  83047907.280 8
      -966.142        -752.837          48.000          48.000
  21561798.223    21561798.297    21561806.022   115260198.922 8  89646817.533 7
      1542.517        1199.737          48.000          42.000
  21927555.041    21927553.662    21927558.185   115230142.876 5  89789671.800 5
      2441.466        1902.444          35.000          35.000
  23629668.397    23629668.502    23629670.560   124174748.362 4  96759565.176 4
      2776.842        2163.772          29.000          29.000
  22520711.265    22520711.060    22520716.834   120259350.879 7  93535078.307 7
     -4796.489       -3730.598          43.000          43.000
  23233670.647    23233673.929    23233678.877   123979343.767 7  96428394.779 6
      3390.007        2636.673          45.000          40.000
  20712298.437    20712298.382    20712301.152   110758030.603 8  86145176.132 7
     -1353.909       -1053.037          49.000          43.000
  20036457.062    20036456.635    20036464.046   106805607.457 8  83071057.993 7
     -2093.592       -1628.348          48.000          44.000
 14 12  9  0 28  0.0000000  0 14R15R17G28G17G24G02G06R01G10G12R13R02 -.000028902
                                R24R14
  21648749.718    21648750.122    21648755.496   115684364.291 7  89976762.685 7
      1595.705        1241.105          46.000          43.000
  21712297.954    21712298.301    21712301.583   116186905.382 8  90367629.399 7
       740.723         576.115          49.000          46.000
  22147654.548    22147653.813    22147657.157   116386708.342 5  90690956.746 5
     -2973.735       -2317.200          32.000          32.000
  21835069.505    21835069.532    21835072.230   114744074.921 6  89410986.162 6
     -1394.459       -1086.594          41.000          41.000
  23379514.615    23379515.073    23379520.414   122860193.734 5  95735215.020 5
      -627.489        -488.957          30.000          30.000
  21661370.133    21661369.346    21661370.053   113831289.283 6  88699727.976 6
      1114.803         868.678          40.000          40.000
  20286690.604    20286691.237    20286696.632   106607320.624 8  83070659.266 8
      -980.189        -763.784          48.000          48.000
  21553196.436    21553196.381    21553203.514   115214215.267 8  89611052.459 6
      1523.270        1184.762          48.000          41.000
  21913648.897    21913647.422    21913651.736   115157064.111 5  89732727.280 5
      2430.643        1894.006          35.000          35.000
  23613828.398    23613828.192    23613830.723   124091507.427 5  96694702.093 5
      2772.733        2160.590          30.000          30.000
  22547673.715    22547673.217    22547679.646   120403328.769 7  93647060.990 7
     -4801.781       -3734.708          42.000          44.000
  23214620.305    23214614.271    23214620.468   123877642.366 7  96349293.684 6
      3390.322        2636.915          45.000          41.000
  20719902.594    20719902.406    20719905.302   110798692.470 8  86176801.994 7
     -1356.668       -1055.185          50.000          43.000
  20048313.105    20048312.428    20048319.858   106868805.127 8  83120211.700 7
     -2119.304       -1648.348          48.000          44.000
 14 12  9  0 28 30.0000000  0 14R15R17G28G17G24G02G06R01G10G12R13R02 -.000019174
                                R24R14
  21639854.943    21639856.014    21639861.106   115636835.577 7  89939795.879 7
      1572.870        1223.345          46.000          43.000
  21708156.628    21708156.341    21708159.343   116164738.868 8  90350388.792 7
       737.060         573.269          49.000          46.000
  22164665.845    22164665.369    22164669.078   116476106.783 5  90760617.771 5
     -2986.074       -2326.805          32.000          32.000
  21843040.382    21843040.307    21843042.774   114785960.012 6  89443623.842 6
     -1397.814       -1089.205          41.000          41.000
  23383143.812    23383144.561    23383149.718   122879265.780 5  95750076.320 5
      -643.938        -501.769          30.000          30.000
  21655035.353    21655035.072    21655035.950   113798002.140 6  88673789.919 6
      1104.427         860.592          40.000          40.000
  20292325.336    20292325.697    20292331.004   106636929.350 8  83093730.977 8
      -993.637        -774.260          48.000          48.000
  21544700.940    21544700.293    21544708.001   115168800.770 8  89575730.058 7
      1504.399        1170.093          48.000          42.000
  21899802.523    21899801.265    21899805.893   115084301.203 6  89676028.878 6
      2420.250        1885.913          36.000          36.000
  23598009.818    23598010.070    23598012.159   124008381.599 5  96629928.716 5
      2769.007        2157.665          30.000          30.000
  22574664.142    22574663.380    22574670.177   120547454.096 7  93759158.335 7
     -4806.435       -3738.336          42.000          44.000
  23195551.005    23195551.845    23195558.233   123775922.014 7  96270177.824 6
      3391.056        2637.482          45.000          41.000
  20727519.915    20727519.663    20727522.930   110839426.025 8  86208483.605 7
     -1358.842       -1056.876          49.000          43.000
  20060311.840    20060310.892    20060318.150   106932764.034 7  83169957.484 7
     -2144.510       -1667.952          47.000          44.000
 14 12  9  0 29  0.0000000  0 14R15R17G28G17G24G02G06R01G10G12R13R02 -.000009445
                                R24R14
  21631091.371    21631091.347    21631096.587   115589999.470 7  89903367.771 7
      1549.262        1204.980          47.000          43.000
  21704035.499    21704035.541    21704038.221   116142684.853 8  90333235.665 7
       732.941         570.066          49.000          46.000
  22181750.156    22181749.116    22181752.457   116565879.509 5  90830570.451 5
     -2999.023       -2336.903          32.000          32.000
  21851031.528    21851031.008    21851033.657   114827951.655 6  89476344.552 6
     -1401.895       -1092.388          40.000          40.000
  23386868.552    23386868.478    23386874.019   122898836.522 5  95765326.230 5
      -661.067        -515.125          30.000          30.000
  21648761.704    21648761.028    21648762.029   113765032.802 6  88648099.502 6
      1093.295         851.921          40.000          40.000
  20298037.629    20298038.056    20298043.241   106666947.679 8  83117121.859 8
     -1007.807        -785.304          48.000          48.000
  21536312.581    21536312.318    21536319.153   115123960.045 8  89540853.924 6
      1484.710        1154.774          48.000          41.000
  21886017.803    21886016.294    21886020.806   115011858.198 6  89619579.750 6
      2409.021        1877.159          37.000          37.000
  23582214.903    23582214.271    23582216.556   123925373.817 5  96565247.313 5
      2764.532        2154.186          30.000          30.000
  22601681.099    22601680.620    22601687.048   120691723.218 7  93871367.525 7
     -4811.722       -3742.447          42.000          44.000
  23176486.180    23176487.211    23176493.343   123674187.284 7  96191050.796 6
      3390.893        2637.365          45.000          41.000
  20735151.298    20735150.649    20735153.493   110880231.343 8  86240221.044 7
     -1361.764       -1059.149          50.000          42.000
  20072452.315    20072452.003    20072459.112   106997482.156 8  83220293.771 7
     -2170.271       -1687.992          48.000          44.000
 14 12  9  0 29 30.0000000  0 14R15R17G28G17G24G02G06R01G10G12R13R02  .000000287
                                R24R14
  21622456.914    21622456.911    21622462.284   115543860.423 7  89867481.816 7
      1526.560        1187.324          47.000          44.000
  21699934.045    21699934.472    21699937.829   116120745.259 8  90316171.547 7
       729.684         567.534          50.000          45.000
  22198903.953    22198903.417    22198906.987   116656027.993 5  90900815.927 5
     -3010.993       -2346.222          32.000          32.000
  21859042.848    21859042.791    21859045.222   114870053.426 6  89509151.076 6
     -1404.976       -1094.786          41.000          41.000
  23390688.130    23390688.135    23390693.510   122918907.826 5  95780966.187 5
      -677.124        -527.638          30.000          30.000
  21642548.853    21642547.953    21642549.352   113732383.919 6  88622658.790 6
      1083.225         844.069          40.000          40.000
  20303828.117    20303828.531    20303833.747   106697376.799 8  83140832.836 8
     -1020.880        -795.491          48.000          48.000
  21528033.339    21528032.542    21528039.812   115079699.836 8  89506429.289 6
      1465.870        1140.122          49.000          41.000
  21872293.364    21872292.464    21872297.330   114939741.357 6  89563384.779 6
      2398.664        1869.094          37.000          37.000
  23566441.770    23566441.766    23566443.673   123842489.057 5  96500661.769 5
      2760.976        2151.415          30.000          30.000
  22628725.255    22628724.301    22628730.612   120836134.539 7  93983687.317 7
     -4815.777       -3745.597          42.000          44.000
  23157427.229    23157420.749    23157426.655   123572445.210 7  96111918.063 6
      3391.709        2637.994          45.000          41.000
  20742795.637    20742795.427    20742798.571   110921110.804 8  86272016.143 7
     -1363.604       -1060.580          49.000          43.000
  20084736.155    20084735.161    20084742.735   107062959.515 7  83271220.570 7
     -2194.934       -1707.173          47.000          44.000
 14 12  9  0 30  0.0000000  0 15R15R17G05G28G17G24G02G06R01G10G12R13  .000010017
                                R02R24R14
  21613952.379    21613952.376    21613957.363   115498412.919 7  89832133.730 7
      1503.012        1169.006          47.000          44.000
  21695854.372    21695853.946    21695856.654   116098910.326 8  90299188.812 7
       725.754         564.474          49.000          45.000
  25374143.715                                   133342027.372 5
      3088.912                          35.000
  22216129.467    22216128.538    22216131.832   116746542.752 5  90971346.810 5
     -3023.601       -2356.050          33.000          33.000
  21867074.090    21867073.865    21867076.506   114912257.093 6  89542036.989 6
     -1408.855       -1097.805          40.000          40.000
  23394600.885    23394600.974    23394606.171   122939470.210 5  95796988.783 5
      -693.949        -540.750          30.000          30.000
  21636395.230    21636394.434    21636396.059   113700047.220 6  88597461.333 6
      1072.345         835.598          40.000          40.000
  20309694.980    20309695.337    20309700.447   106728206.848 8  83164856.223 7
     -1034.682        -806.245          48.000          47.000
  21519860.721    21519860.087    21519868.188   115036014.953 8  89472452.140 6
      1446.166        1124.794          49.000          41.000
  21858632.244    21858630.776    21858635.220   114867945.850 6  89507440.195 6
      2387.448        1860.349          37.000          37.000
  23550692.754    23550691.947    23550694.300   123759722.205 5  96436168.105 5
      2756.577        2147.980          31.000          31.000
  22655792.772    22655792.415    22655798.524   120980675.576 7  94096107.994 7
     -4820.529       -3749.301          42.000          44.000
  23138348.646    23138352.537    23138357.719   123470691.482 7  96032776.270 6
      3391.620        2637.926          46.000          41.000
  20750451.984    20750452.263    20750454.728   110962054.759 8  86303861.403 7
     -1366.207       -1062.605          49.000          43.000
  20097159.695    20097159.185    20097166.353   107129184.947 8  83322729.195 7
     -2220.310       -1726.908          48.000          44.000
 14 12  9  0 30 30.0000000  0 15R15R17G05G28G17G24G02G06R01G10G12R13  .000019748
                                R02R24R14
  21605577.817    21605578.424    21605583.914   115453665.633 7  89797330.253 7
      1479.743        1150.910          47.000          44.000
  21691795.819    21691795.177    21691796.939   116077185.631 8  90282291.821 7
       722.190         561.703          49.000          45.000
  25356495.802    25356496.316    25356501.479   133249293.754 2 103830626.017 2
      3093.062        2410.228          14.000          14.000
  22233423.770    22233423.376    22233427.276   116837428.938 5  91042167.117 5
     -3035.821       -2365.573          33.000          33.000
  21875125.894    21875125.682    21875128.559   114954569.948 6  89575007.991 6
     -1412.386       -1100.558          40.000          40.000
  23398608.249    23398608.564    23398613.777   122960528.584 5  95813397.880 5
      -710.337        -553.516          30.000          30.000
  21630302.321    21630301.399    21630303.098   113668028.574 6  88572511.715 6
      1061.857         827.422          40.000          40.000
  20315639.075    20315639.351    20315644.486   106759442.554 7  83189195.707 7
     -1048.053        -816.666          47.000          47.000
  21511798.024    21511797.631    21511804.964   114992915.823 8  89438930.571 6
      1426.712        1109.665          49.000          41.000
  21845031.905    21845030.940    21845036.427   114796481.167 6  89451753.405 6
      2376.470        1851.800          37.000          37.000
  23534966.261    23534965.884    23534968.118   123677081.536 5  96371772.762 5
      2752.443        2144.763          31.000          30.000
  22682886.084    22682884.815    22682891.467   121125348.093 7  94208630.934 7
     -4824.651       -3752.503          42.000          43.000
  23119286.333    23119284.566    23119289.070   123368936.559 7  95953633.541 6
      3391.707        2637.993          47.000          41.000
  20758122.058    20758121.757    20758125.181   111003069.255 8  86335761.523 7
     -1368.431       -1064.334          49.000          43.000
  20109724.647    20109723.856    20109731.171   107196161.706 8  83374822.189 7
     -2245.190       -1746.253          48.000          43.000
 14 12  9  0 31  0.0000000  0 15R15R17G05G28G17G24G02G06R01G10G12R13  .000029476
                                R02R24R14
  21597334.112    21597334.654    21597340.798   115409615.525 7  89763069.029 7
      1456.600        1132.912          47.000          45.000
  21687752.782    21687753.202    21687756.542   116055564.056 8  90265475.036 7
       718.906         559.150          49.000          44.000
  25338823.201    25338822.167    25338830.109   133156430.801 2 103758265.165 2
      3097.450        2413.581          14.000          14.000
  22250788.427    22250787.959    22250791.176   116928678.898 5  91113270.871 5
     -3047.788       -2374.894          33.000          33.000
  21883197.347    21883197.350    21883200.242   114996986.270 6  89608059.622 6
     -1415.674       -1103.119          40.000          41.000
  23402708.803    23402708.908    23402714.256   122982076.396 5  95830188.357 5
      -726.473        -566.086          30.000          30.000
  21624268.943    21624267.842    21624269.339   113636321.773 6  88547805.096 6
      1051.594         819.426          40.000          40.000
  20321658.813    20321659.070    20321664.161   106791076.210 8  83213845.282 8
     -1061.136        -826.860          48.000          48.000
  21503844.224    21503843.947    21503851.413   114950399.856 8  89405862.575 6
      1407.347        1094.604          49.000          41.000
  21831495.828    21831494.377    21831498.864   114725344.492 6  89396322.193 6
      2365.650        1843.372          36.000          36.000
  23519263.882    23519263.270    23519265.131   123594563.019 5  96307472.603 5
      2748.456        2141.663          31.000          31.000
  22709999.785    22710000.120    22710006.413   121270141.201 7  94321247.667 7
     -4828.464       -3755.469          42.000          43.000
  23100217.028    23100214.039    23100219.587   123267178.612 7  95874488.448 6
      3391.835        2638.098          46.000          41.000
  20765803.828    20765803.663    20765806.989   111044147.403 8  86367711.162 7
     -1370.417       -1065.879          48.000          43.000
  20122428.845    20122427.969    20122434.769   107263881.129 8  83427492.809 7
     -2269.720       -1765.337          48.000          43.000
 14 12  9  0 31 30.0000000  0 15R15R17G05G28G17G24G02G06R01G10G12R13  .000039204
                                R02R24R14
  21589222.219    21589222.754    21589229.509   115366267.770 7  89729354.082 7
      1433.466        1114.919          47.000          46.000
  21683733.027    21683732.885    21683736.067   116034047.501 8  90248739.925 7
       715.644         556.611          49.000          45.000
  25321129.312    25321129.212    25321133.260   133063445.618 2 103685809.141 2
      3101.690        2416.934          12.000          13.000
  22268222.521    22268222.237    22268225.995   117020294.974 5  91184659.923 5
     -3059.779       -2384.240          33.000          33.000
  21891289.232    21891289.274    21891292.084   115039510.322 6  89641195.194 6
     -1419.065       -1105.764          40.000          40.000
  23406902.232    23406902.245    23406908.417   123004115.633 5  95847361.762 5
      -742.578        -578.626          30.000          30.000
  21618294.775    21618294.155    21618295.389   113604930.280 6  88523344.168 6
      1041.331         811.427          39.000          39.000
  20327754.389    20327754.798    20327759.913   106823109.534 8  83238806.283 8
     -1074.212        -837.049          48.000          48.000
  21496001.448    21496000.640    21496008.802   114908474.324 8  89373253.804 6
      1387.855        1079.442          49.000          41.000
  21818021.632    21818020.855    21818025.564   114654542.391 6  89341151.691 6
      2354.658        1834.798          36.000          36.000
  23503584.777    23503584.807    23503587.065   123512172.760 5  96243272.380 5
      2744.423        2138.516          30.000          30.000
  22737137.540    22737137.903    22737144.319   121415054.652 7  94433957.989 7
     -4832.186       -3758.366          42.000          43.000
  23081144.270    23081145.529    23081151.072   123165425.099 7  95795346.826 6
      3391.915        2638.156          45.000          41.000
  20773498.823    20773498.215    20773501.313   111085291.830 8  86399712.335 7
     -1372.392       -1067.418          49.000          43.000
  20135272.236    20135271.479    20135277.992   107332343.017 8  83480740.891 7
     -2294.221       -1784.394          48.000          43.000
 14 12  9  0 32  0.0000000  0 15R15R17G05G28G17G24G02G06R01G10G12R13  .000048931
                                R02R24R14
  21581243.077    21581243.323    21581249.524   115323625.541 7  89696187.886 7
      1409.786        1096.500          47.000          46.000
  21679732.555    21679732.131    21679735.376   116012635.483 8  90232086.121 7
       712.232         553.959          49.000          46.000
  25303413.186    25303411.068    25303416.806   132970340.760 2 103613259.805 2
      3105.679        2419.972          13.000          13.000
  22285725.777    22285725.584    22285729.102   117112276.313 5  91256333.574 5
     -3071.892       -2393.679          33.000          33.000
  21899402.412    21899402.290    21899404.542   115082142.838 6  89674415.284 6
     -1422.660       -1108.563          40.000          40.000
  23411189.744    23411189.906    23411195.357   123026645.232 5  95864917.263 5
      -758.905        -591.341          30.000          30.000
  21612381.563    21612380.822    21612381.753   113573854.372 6  88499129.156 6
      1030.788         803.213          39.000          39.000
  20333926.179    20333926.479    20333931.617   106855541.374 8  83264077.821 8
     -1087.482        -847.385          48.000          48.000
  21488269.496    21488269.116    21488276.862   114867142.991 8  89341107.193 6
      1367.978        1063.979          49.000          41.000
  21804612.683    21804611.881    21804616.756   114584078.508 5  89286244.736 6
      2343.328        1825.972          35.000          36.000
  23487931.291    23487931.106    23487933.451   123429913.577 5  96179174.302 5
      2739.941        2135.024          30.000          30.000
  22764297.088    22764297.234    22764304.006   121560083.915 7  94546758.375 7
     -4836.001       -3761.332          42.000          43.000
  23062073.477    23062077.782    23062084.604   123063680.381 7  95716212.027 7
      3391.542        2637.859          45.000          42.000
  20781205.438    20781204.859    20781207.868   111126502.742 8  86431765.225 7
     -1374.596       -1069.128          48.000          43.000
  20148253.782    20148253.568    20148260.182   107401545.228 8  83534564.783 7
     -2318.847       -1803.545          48.000          43.000
 14 12  9  0 32 30.0000000  0 15R15R17G05G28G17G24G02G06R01G10G12R13  .000058663
                                R02R24R14
  21573397.433    21573397.414    21573403.494   115281700.500 7  89663579.501 7
      1385.612        1077.696          47.000          46.000
  21675752.136    21675751.427    21675755.190   115991335.856 8  90215519.729 7
       708.278         550.882          48.000          46.000
  25285673.587    25285674.870    25285679.970   132877126.510 2 103540625.278 2
      3108.997        2422.622          12.000          12.000
  22303300.957    22303300.267    22303303.725   117204629.875 5  91328297.290 5
     -3084.549       -2403.537          32.000          32.000
  21907537.306    21907536.995    21907539.627   115124892.312 6  89707726.504 6
     -1426.853       -1111.830          40.000          40.000
  23415571.838    23415571.975    23415577.613   123049672.725 5  95882860.737 5
      -775.785        -604.520          30.000          30.000
  21606529.722    21606529.101    21606529.576   113543102.660 6  88475166.764 6
      1019.742         794.608          39.000          39.000
  20340174.724    20340175.193    20340180.380   106888378.552 8  83289665.203 8
     -1101.223        -858.099          48.000          48.000
  21480651.150    21480650.970    21480657.946   114826417.876 8  89309432.079 6
      1347.437        1048.007          50.000          40.000
  21791271.194    21791269.759    21791274.263   114513964.661 5  89231610.545 5
      2331.335        1816.622          35.000          35.000
  23472305.034    23472304.789    23472307.342   123347796.674 5  96115187.098 5
      2734.938        2131.110          30.000          30.000
  22791479.891    22791479.333    22791485.969   121705233.532 7  94659652.374 7
     -4840.168       -3764.573          42.000          43.000
  23043018.530    23043014.366    23043022.449   122961957.362 7  95637094.093 7
      3390.480        2637.042          44.000          42.000
  20788926.286    20788925.251    20788928.239   111167787.631 8  86463875.647 7
     -1377.309       -1071.245          48.000          43.000
  20161376.516    20161375.622    20161382.612   107471493.113 8  83588968.644 7
     -2343.923       -1823.052          48.000          43.000
 14 12  9  0 33  0.0000000  0 15R15R17G05G28G17G24G02G06R01G10G12R13  .000068395
                                R02R24R14
  21565684.179    21565684.613    21565690.928   115240485.712 7  89631523.524 7
      1362.300        1059.565          47.000          46.000
  21671790.209    21671790.286    21671794.210   115970138.066 8  90199032.538 7
       705.185         548.476          48.000          46.000
  25267912.629    25267915.497    25267921.042   132783797.061 1 103467900.924 1
      3113.134        2425.842          10.000          11.000
  22320943.363    22320942.930    22320947.068   117297345.321 5  91400542.979 5
     -3096.217       -2412.638          32.000          31.000
  21915693.107    21915692.984    21915695.226   115167751.065 6  89741122.868 6
     -1430.158       -1114.409          40.000          40.000
  23420047.328    23420046.860    23420052.277   123073187.952 5  95901184.258 5
      -791.615        -616.848          30.000          30.000
  21600737.974    21600737.296    21600737.643   113512665.562 6  88451449.524 6
      1009.617         786.714          40.000          39.000
  20346498.730    20346498.857    20346504.126   106921610.426 8  83315560.141 8
     -1113.976        -868.034          48.000          48.000
  21473144.486    21473144.011    21473151.884   114786293.233 8  89278224.002 6
      1327.748        1032.691          49.000          40.000
  21777994.241    21777993.406    21777997.081   114444195.126 5  89177244.645 5
      2320.169        1807.924          35.000          35.000
  23456703.466    23456703.747    23456706.660   123265815.228 5  96051305.425 5
      2730.737        2127.841          30.000          30.000
  22818681.707    22818681.236    22818688.036   121850490.081 7  94772629.541 7
     -4843.309       -3767.018          42.000          43.000
  23023955.341    23023954.718    23023962.927   122860251.370 7  95557989.393 7
      3390.185        2636.814          45.000          42.000
  20796658.331    20796657.763    20796661.369   111209136.890 8  86496036.130 7
     -1379.068       -1072.605          49.000          44.000
  20174635.859    20174635.263    20174641.865   107542174.375 8  83643942.913 7
     -2367.918       -1841.712          48.000          44.000
 14 12  9  0 33 30.0000000  0 15R15R17G05G28G17G24G02G06R01G10G12R13  .000078123
                                R02R24R14
  21558103.729    21558103.914    21558109.971   115199976.746 7  89600016.520 7
      1338.532        1041.082          47.000          45.000
  21667845.104    21667845.967    21667850.660   115949035.131 8  90182619.122 7
       701.850         545.885          48.000          46.000
  25250134.709    25250132.359    25250137.021   132690348.342 2 103395083.618 2
      3116.875        2428.782          12.000          13.000
  22338654.125    22338653.626    22338657.714   117390415.444 5  91473065.044 5
     -3108.228       -2421.995          31.000          31.000
  21923868.744    21923868.325    21923870.755   115210713.448 6  89774599.986 6
     -1433.809       -1117.247          39.000          39.000
  23424613.400    23424613.422    23424618.524   123097183.820 5  95919882.309 5
      -807.800        -629.456          30.000          30.000
  21595005.173    21595004.205    21595004.431   113482537.079 6  88427972.759 6
       999.152         778.560          40.000          40.000
  20352896.006    20352896.370    20352901.670   106955229.329 8  83341756.659 7
     -1127.038        -878.208          48.000          47.000
  21465750.896    21465750.504    21465757.136   114746766.903 8  89247481.271 6
      1307.528        1016.969          49.000          40.000
  21764782.991    21764781.898    21764785.709   114374767.023 6  89123144.801 6
      2308.565        1798.887          36.000          36.000
  23441128.985    23441128.589    23441131.228   123183965.164 5  95987526.123 5
      2726.124        2124.263          30.000          30.000
  22845902.421    22845901.975    22845908.089   121995842.829 7  94885681.532 7
     -4846.665       -3769.623          42.000          43.000
  23004896.483    23004898.954    23004905.996   122758560.074 7  95478896.143 7
      3389.461        2636.247          46.000          42.000
  20804402.546    20804401.618    20804404.578   111250544.010 8  86528241.613 7
     -1381.157       -1074.232          49.000          44.000
  20188031.159    20188030.611    20188037.659   107613580.090 8  83699480.640 7
     -2392.203       -1860.602          48.000          43.000
 14 12  9  0 34  0.0000000  0 15R15R17G05G28G17G24G02G06R01G10G12R13  .000087850
                                R02R24R14
  21550656.980    21550657.060    21550662.859   115160183.199 7  89569065.945 7
      1314.459        1022.362          47.000          46.000
  21663922.654    21663922.058    21663925.753   115928032.570 8  90166283.762 7
       698.345         543.159          48.000          46.000
  25232325.098    25232329.121    25232333.566   132596789.224 2 103322180.377 2
      3120.403        2431.451          13.000          14.000
  22356433.397    22356432.488    22356436.734   117483845.388 5  91545867.487 5
     -3120.418       -2431.491          31.000          31.000
  21932065.500    21932065.053    21932067.609   115253786.793 6  89808163.582 6
     -1437.708       -1120.288          40.000          40.000
  23429272.451    23429272.292    23429277.171   123121665.312 5  95938958.769 5
      -824.210        -642.243          30.000          30.000
  21589332.012    21589330.779    21589331.169   113452723.495 6  88404741.375 6
       988.470         770.234          40.000          40.000
  20359368.288    20359368.550    20359373.830   106989240.015 7  83368258.465 7
     -1140.289        -888.536          47.000          47.000
  21458470.611    21458469.875    21458477.051   114707848.533 8  89217211.404 6
      1287.015        1001.010          49.000          40.000
  21751638.208    21751637.290    21751641.561   114305690.176 6  89069318.670 6
      2296.584        1789.551          37.000          37.000
  23425579.760    23425579.906    23425582.676   123102256.403 5  95923856.939 5
      2721.153        2120.386          30.000          31.000
  22873141.674    22873140.676    22873146.357   122141294.312 7  94998810.326 7
     -4850.051       -3772.256          43.000          43.000
  22985850.792    22985846.580    22985854.160   122656894.592 7  95399822.974 7
      3388.311        2635.356          45.000          43.000
  20812157.243    20812156.749    20812160.008   111292014.704 8  86560496.555 7
     -1383.505       -1076.058          49.000          44.000
  20201563.217    20201562.375    20201569.939   107685713.162 8  83755584.099 7
     -2416.633       -1879.605          48.000          44.000
 14 12  9  0 34 30.0000000  0 15R15R17G05G28G17G24G02G06R01G10G12R13  .000097578
                                R02R24R14
  21543344.634    21543344.767    21543350.786   115121108.778 7  89538674.699 7
      1290.671        1003.854          47.000          45.000
  21660015.891    21660016.417    21660019.047   115907131.001 8  90150026.967 7
       695.266         540.761          49.000          45.000
  25214504.173    25214503.249    25214509.123   132503123.798 2 103249194.208 2
      3124.083        2434.402          12.000          12.000
  22374281.369    22374280.855    22374284.731   117577635.179 5  91618950.326 5
     -3132.133       -2440.630          31.000          31.000
  21940283.704    21940283.130    21940285.505   115296973.182 6  89841815.249 6
     -1441.245       -1123.046          39.000          39.000
  23434022.925    23434023.382    23434028.747   123146633.454 5  95958414.429 5
      -840.128        -654.657          30.000          30.000
  21583718.453    21583717.831    21583718.313   113423226.428 6  88381756.621 6
       978.164         762.208          40.000          41.000
  20365915.011    20365915.183    20365920.488   107023642.635 8  83395065.670 7
     -1153.040        -898.474          48.000          47.000
  21451305.043    21451304.316    21451310.754   114669543.714 8  89187418.740 6
      1266.766         985.265          49.000          39.000
  21738561.163    21738560.063    21738564.252   114236969.453 6  89015770.031 6
      2284.923        1780.456          38.000          38.000
  23410059.751    23410059.223    23410061.685   123020692.756 5  95860300.827 5
      2716.572        2116.807          31.000          31.000
  22900397.839    22900397.037    22900402.911   122286841.676 7  95112013.677 7
     -4852.916       -3774.491          42.000          43.000
  22966800.535    22966801.175    22966807.684   122555260.590 7  95320774.300 7
      3387.406        2634.647          47.000          42.000
  20819924.250    20819923.814    20819927.269   111333550.373 8  86592802.025 7
     -1385.377       -1077.520          49.000          44.000
  20215230.689    20215230.244    20215238.177   107758572.379 7  83812252.338 7
     -2440.486       -1898.154          47.000          44.000
 14 12  9  0 35  0.0000000  0 15R15R17G05G28G17G24G02G06R01G10G12R13  .000107308
                                R02R24R14
  21536167.587    21536167.984    21536173.623   115082756.755 7  89508845.314 7
      1266.013         984.678          47.000          45.000
  21656128.676    21656128.396    21656131.608   115886330.251 8  90133848.582 7
       691.363         537.722          49.000          45.000
  25196662.020    25196661.750    25196666.694   132409354.931 2 103176127.468 2
      3127.008        2436.623          13.000          12.000
  22392198.230    22392197.257    22392200.943   117671784.348 5  91692313.203 5
     -3144.573       -2450.315          31.000          31.000
  21948522.749    21948522.840    21948525.562   115340273.907 6  89875556.002 6
     -1445.575       -1126.420          39.000          39.000
  23438866.594    23438867.344    23438872.120   123172087.080 5  95978248.390 5
      -856.847        -667.679          30.000          30.000
  21578165.365    21578164.782    21578165.736   113394046.166 6  88359018.723 6
       967.097         753.588          40.000          40.000
  20372535.539    20372536.048    20372541.414   107058436.113 8  83422177.442 7
     -1166.607        -909.042          48.000          47.000
  21444254.759    21444254.461    21444260.394   114631856.416 8  89158106.356 6
      1245.574         968.780          49.000          39.000
  21725552.552    21725551.324    21725555.879   114168608.761 6  88962501.928 6
      2272.321        1770.645          38.000          38.000
  23394566.448    23394566.563    23394569.181   122939277.102 5  95796860.025 5
      2711.054        2112.508          31.000          31.000
  22927670.740    22927670.430    22927676.953   122432481.425 7  95225288.880 7
     -4856.445       -3777.231          42.000          43.000
  22947760.059    22947762.300    22947768.095   122453663.225 7  95241754.131 7
      3385.571        2633.223          47.000          42.000
  20827704.174    20827703.496    20827706.901   111375151.047 8  86625158.061 7
     -1388.101       -1079.631          50.000          44.000
  20229034.643    20229034.446    20229042.349   107832155.305 8  83869483.460 7
     -2465.112       -1917.309          48.000          44.000
 14 12  9  0 35 30.0000000  0 15R15R17G05G28G17G24G02G06R01G10G12R13  .000117037
                                R02R24R14
  21529125.590    21529125.940    21529131.813   115045127.640 7  89479578.189 7
      1242.355         966.275          47.000          45.000
  21652261.252    21652260.416    21652262.597   115865627.605 8  90117746.509 7
       688.566         535.551          49.000          46.000
  25178798.243    25178799.204    25178801.238   132315483.894 2 103102981.125 2
      3130.811        2439.626          13.000          14.000
  22410181.620    22410180.703    22410184.754   117766289.843 5  91765953.729 5
     -3156.016       -2459.235          31.000          31.000
  21956784.505    21956784.473    21956787.386   115383688.042 6  89909385.143 6
     -1448.944       -1129.045          39.000          39.000
  23443802.424    23443802.461    23443807.883   123198023.574 5  95998458.607 5
      -872.520        -679.885          30.000          30.000
  21572672.759    21572671.931    21572673.042   113365181.596 6  88336526.821 6
       956.975         745.696          41.000          41.000
  20379230.583    20379230.870    20379236.112   107093617.279 8  83449591.307 7
     -1179.065        -918.753          48.000          47.000
  21437319.843    21437319.720    21437326.894   114594788.297 8  89129275.574 6
      1225.334         953.035          49.000          39.000
  21712613.193    21712611.855    21712616.412   114100610.063 6  88909515.900 6
      2260.649        1761.542          38.000          38.000
  23379102.452    23379102.103    23379104.874   122858010.826 5  95733535.616 5
      2706.444        2108.917          31.000          31.000
  22954961.228    22954960.414    22954966.841   122578207.611 7  95338631.320 7
     -4858.838       -3779.096          42.000          43.000
  22928732.368    22928729.852    22928736.171   122352105.150 7  95162764.505 6
      3384.665        2632.515          46.000          41.000
  20835495.523    20835494.786    20835498.192   111416814.550 8  86657562.966 7
     -1389.781       -1080.943          50.000          43.000
  20242973.536    20242973.127    20242981.204   107906456.840 7  83927273.503 7
     -2488.567       -1935.552          47.000          44.000
 14 12  9  0 36  0.0000000  0 15R15R17G05G28G17G24G02G06R01G10G12R13  .000126767
                                R02R24R14
  21522219.238    21522220.010    21522225.976   115008223.574 7  89450874.985 7
      1217.919         947.270          47.000          46.000
  21648409.411    21648409.294    21648412.299   115845021.353 8  90101719.407 7
       685.179         532.920          49.000          46.000
  25160914.424    25160916.694    25160920.500   132221511.909 2 103029756.142 2
      3133.930        2441.985          13.000          13.000
  22428233.041    22428232.645    22428235.750   117861149.876 5  91839870.510 5
     -3168.042       -2468.597          31.000          32.000
  21965067.675    21965067.588    21965070.227   115427215.786 6  89943302.796 6
     -1452.946       -1132.164          40.000          40.000
  23448829.732    23448829.333    23448834.722   123224440.923 5  96019043.527 5
      -888.764        -692.547          30.000          30.000
  21567239.654    21567239.042    21567240.187   113336631.427 6  88314279.913 6
       946.308         737.378          40.000          41.000
  20385998.583    20385998.962    20386004.172   107129183.848 8  83477305.486 7
     -1192.074        -928.886          48.000          47.000
  21430502.453    21430501.732    21430509.338   114558342.314 8  89100928.669 6
      1204.336         936.708          49.000          40.000
  21699741.778    21699741.021    21699746.137   114032975.757 6  88856813.812 6
      2248.235        1751.872          38.000          38.000
  23363666.377    23363666.439    23363668.850   122776895.268 5  95670328.659 5
      2701.187        2104.823          31.000          31.000
  22982265.467    22982265.412    22982272.283   122724015.619 6  95452037.387 7
     -4861.688       -3781.312          41.000          43.000
  22909705.165    22909706.005    22909711.882   122250589.981 7  95083808.272 7
      3382.930        2631.171          47.000          42.000
  20843298.240    20843297.815    20843301.293   111458539.936 8  86690015.986 7
     -1392.024       -1082.685          49.000          43.000
  20257046.694    20257046.108    20257054.232   107981473.380 7  83985619.656 7
     -2512.549       -1954.203          47.000          44.000
 14 12  9  0 36 30.0000000  0 15R15R17G05G28G17G24G02G06R01G10G12R13  .000136497
                                R02R24R14
  21515449.676    21515450.140    21515456.237   114972046.555 8  89422737.267 7
      1193.881         928.576          48.000          46.000
  21644576.768    21644576.938    21644579.719   115824511.917 8  90085767.607 7
       682.125         530.543          50.000          46.000
  25143015.437    25143016.231    25143022.004   132127442.761 2 102956455.436 2
      3137.299        2444.633          13.000          13.000
  22446351.482    22446351.201    22446354.552   117956364.202 5  91914063.370 5
     -3179.643       -2477.639          31.000          31.000
  21973373.003    21973372.666    21973374.927   115470858.637 6  89977310.149 6
     -1456.604       -1135.013          39.000          39.000
  23453947.954    23453947.975    23453953.560   123251338.996 5  96040003.036 5
      -904.495        -704.800          30.000          30.000
  21561866.975    21561866.176    21561867.374   113308396.389 6  88292278.554 6
       935.983         729.340          41.000          41.000
  20392839.977    20392840.256    20392845.594   107165135.245 7  83505319.528 7
     -1204.698        -938.720          47.000          47.000
  21423801.082    21423800.954    21423808.380   114522522.822 8  89073069.026 6
      1183.598         920.577          48.000          40.000
  21686942.348    21686941.191    21686945.956   113965710.262 6  88804399.100 6
      2236.072        1742.393          37.000          37.000
  23348260.540    23348260.541    23348262.266   122695934.539 5  95607242.345 5
      2696.180        2100.924          30.000          30.000
  23009586.225    23009585.463    23009591.874   122869902.069 7  95565504.465 7
     -4864.040       -3783.134          42.000          43.000
  22890690.227    22890690.005    22890697.459   122149123.107 7  95004889.601 7
      3381.393        2629.971          46.000          42.000
  20851112.354    20851111.934    20851115.967   111500327.774 8  86722517.591 7
     -1393.882       -1084.130          49.000          43.000
  20271254.444    20271253.411    20271260.696   108057202.329 8  84044519.896 7
     -2536.059       -1972.490          48.000          44.000
 14 12  9  0 37  0.0000000  0 15R15R17G05G28G17G24G02G06R01G10G12R13  .000146226
                                R02R24R14
  21508815.677    21508815.919    21508822.109   114936596.630 7  89395165.074 7
      1169.861         909.891          47.000          46.000
  21640761.295    21640761.309    21640765.059   115804095.131 8  90069887.862 7
       679.398         528.421          49.000          46.000
  25125095.065    25125095.805    25125100.399   132033275.691 2 102883078.423 2
      3140.804        2447.393          15.000          15.000
  22464536.991    22464536.395    22464539.548   118051928.202 5  91988528.697 5
     -3190.914       -2486.431          31.000          31.000
  21981699.251    21981699.092    21981701.918   115514614.197 6  90011405.341 6
     -1460.071       -1137.719          39.000          40.000
  23459157.458    23459157.266    23459162.335   123278713.438 4  96061333.725 4
      -920.118        -716.963          29.000          29.000
  21556553.421    21556552.623    21556553.755   113280473.404 6  88270520.358 6
       925.897         721.476          41.000          41.000
  20399753.707    20399753.956    20399759.398   107201466.766 7  83533629.775 7
     -1217.050        -948.349          47.000          47.000
  21417217.973    21417217.545    21417225.317   114487330.298 8  89045697.046 6
      1162.946         904.510          49.000          41.000
  21674212.413    21674211.036    21674216.002   113898813.904 6  88752272.022 6
      2224.014        1732.998          37.000          37.000
  23332883.809    23332883.316    23332885.406   122615127.601 5  95544275.872 5
      2691.327        2097.138          30.000          30.000
  23036918.788    23036918.659    23036924.785   123015859.669 7  95679026.889 7
     -4866.082       -3784.721          42.000          42.000
  22871684.466    22871684.613    22871691.315   122047705.847 7  94926009.522 7
      3380.012        2628.903          46.000          42.000
  20858937.891    20858937.408    20858941.300   111542174.237 8  86755064.794 7
     -1395.520       -1085.404          49.000          43.000
  20285592.556    20285592.687    20285599.852   108133637.726 8  84103969.598 7
     -2559.239       -1990.519          48.000          44.000
 14 12  9  0 37 30.0000000  0 15R15R17G05G28G17G24G02G06R01G10G12R13  .000155952
                                R02R24R14
  21502318.222    21502318.303    21502324.024   114901871.707 8  89368156.768 7
      1145.166         890.683          48.000          46.000
  21636962.578    21636962.358    21636965.864   115783765.858 8  90054076.182 7
       676.002         525.781          50.000          46.000
  25107160.177    25107157.360    25107161.879   131939009.217 2 102809623.950 2
      3143.611        2449.552          15.000          15.000
  22482787.771    22482786.779    22482790.895   118147836.198 5  92063262.077 5
     -3202.801       -2495.681          31.000          31.000
  21990046.255    21990046.141    21990049.057   115558479.019 6  90045585.653 6
     -1464.175       -1140.911          40.000          40.000
  23464455.877    23464456.053    23464461.349   123306559.203 4  96083031.682 4
      -936.243        -729.540          29.000          29.000
  21551298.248    21551297.655    21551298.681   113252858.180 6  88249001.972 6
       915.187         713.131          41.000          41.000
  20406738.522    20406738.887    20406744.342   107238172.621 8  83562231.706 8
     -1229.916        -958.375          48.000          48.000
  21410751.580    21410751.513    21410758.689   114452763.846 8  89018812.006 6
      1141.550         887.868          48.000          41.000
  21661550.829    21661550.721    21661555.792   113832285.697 6  88700431.820 6
      2211.265        1723.065          37.000          37.000
  23317535.145    23317535.460    23317537.302   122534473.801 4  95481428.727 4
      2685.724        2092.772          29.000          29.000
  23064264.640    23064263.638    23064269.996   123161879.583 6  95792597.778 7
     -4868.439       -3786.555          41.000          42.000
  22852688.150    22852687.769    22852695.696   121946338.053 7  94847167.897 7
      3377.854        2627.215          46.000          42.000
  20866774.056    20866773.277    20866776.794   111584075.108 8  86787654.306 7
     -1397.806       -1087.178          48.000          43.000
  20300063.265    20300062.678    20300070.026   108210771.817 8  84163962.729 7
     -2582.912       -2008.932          48.000          44.000
 14 12  9  0 38  0.0000000  0 15R15R17G05G28G17G24G02G06R01G10G12R13  .000165677
                                R02R24R14
  21495956.398    21495957.137    21495963.423   114867880.583 8  89341719.188 7
      1120.525         871.518          48.000          46.000
  21633179.970    21633180.656    21633184.241   115763529.755 8  90038336.967 7
       672.739         523.241          49.000          47.000
  25089202.839    25089202.145    25089206.792   131844652.492 2 102736099.121 2
      3146.343        2451.724          15.000          15.000
  22501104.973    22501104.229    22501108.210   118244093.593 5  92138267.700 5
     -3214.676       -2504.941          31.000          31.000
  21998415.636    21998415.726    21998418.349   115602460.606 6  90079856.960 6
     -1468.299       -1144.130          39.000          39.000
  23469844.780    23469845.667    23469850.672   123334881.157 4  96105100.696 4
      -952.243        -742.000          29.000          29.000
  21546103.087    21546102.645    21546103.768   113225557.571 6  88227728.738 6
       904.525         704.823          41.000          41.000
  20413795.664    20413796.042    20413801.433   107275257.687 8  83591129.129 7
     -1242.728        -968.359          48.000          47.000
  21404404.375    21404404.075    21404410.875   114418833.176 8  88992421.458 6
      1120.132         871.211          48.000          41.000
  21648965.192    21648963.385    21648967.911   113766135.520 6  88648886.184 6
      2198.400        1713.037          38.000          38.000
  23302217.563    23302218.045    23302220.105   122453981.376 4  95418707.317 4
      2680.111        2088.395          29.000          29.000
  23091622.457    23091620.976    23091626.808   123307965.119 6  95906219.689 7
     -4870.798       -3788.393          41.000          42.000
  22833702.083    22833702.693    22833710.363   121845030.964 7  94768373.487 7
      3375.533        2625.413          46.000          43.000
  20874620.264    20874620.071    20874623.850   111626036.319 8  86820290.751 7
     -1399.986       -1088.882          48.000          43.000
  20314665.491    20314664.910    20314671.732   108288607.941 8  84224501.881 7
     -2606.427       -2027.220          48.000          43.000
 14 12  9  0 38 30.0000000  0 15R15R17G05G28G17G24G02G06R01G10G12R13  .000175403
                                R02R24R14
  21489734.212    21489734.441    21489740.324   114834628.214 8  89315856.195 7
      1096.235         852.624          48.000          46.000
  21629416.992    21629416.406    21629420.470   115743388.844 8  90022671.785 7
       669.939         521.064          49.000          46.000
  25071231.222    25071230.700    25071237.040   131750210.523 2 102662507.908 2
      3149.619        2454.228          15.000          16.000
  22519489.225    22519488.688    22519492.046   118340701.533 5  92213546.491 5
     -3225.890       -2513.687          30.000          30.000
  22006807.989    22006807.826    22006810.929   115646562.398 6  90114221.934 6
     -1471.930       -1146.962          40.000          40.000
  23475325.771    23475325.855    23475330.525   123363680.593 4  96127541.772 4
      -967.739        -754.080          28.000          28.000
  21540968.813    21540968.130    21540968.780   113198573.725 6  88206702.329 6
       894.369         696.916          41.000          41.000
  20420925.392    20420925.592    20420930.873   107312723.135 8  83620322.953 7
     -1255.007        -977.928          48.000          47.000
  21398177.387    21398176.741    21398183.792   114385544.737 8  88966530.419 6
      1099.078         854.839          48.000          41.000
  21636449.088    21636448.292    21636452.813   113700369.375 6  88597639.807 6
      2185.938        1703.329          37.000          37.000
  23286932.021    23286932.457    23286934.981   122373655.879 4  95356115.985 4
      2674.874        2084.324          29.000          29.000
  23118991.693    23118990.681    23118995.862   123454114.315 6  96019891.107 7
     -4872.513       -3789.729          41.000          42.000
  22814732.640    22814731.506    22814738.354   121743791.907 7  94689632.009 7
      3373.630        2623.929          47.000          44.000
  20882479.461    20882479.064    20882482.986   111668060.468 8  86852976.142 7
     -1401.680       -1090.198          48.000          43.000
  20329398.879    20329398.466    20329405.075   108367145.254 8  84285586.400 7
     -2629.373       -2045.066          48.000          43.000
 14 12  9  0 39  0.0000000  0 15R15R17G05G28G17G24G02G06R01G10G12R13  .000185132
                                R02R24R14
  21483649.813    21483650.163    21483655.815   114802116.518 8  89290569.282 7
      1071.562         833.437          48.000          46.000
  21625670.825    21625670.712    21625674.068   115723342.073 8  90007079.826 7
       666.910         518.708          49.000          46.000
  25053244.096    25053243.517    25053249.271   131655685.549 2 102588852.034 2
      3152.370        2456.372          17.000          17.000
  22537940.104    22537938.493    22537942.860   118437658.437 5  92289097.192 5
     -3237.446       -2522.685          30.000          30.000
  22015223.452    22015223.209    22015226.282   115690784.738 6  90148680.839 6
     -1475.901       -1150.053          40.000          40.000
  23480896.590    23480897.070    23480902.549   123392955.763 4  96150353.557 4
      -983.545        -766.401          29.000          29.000
  21535894.111    21535893.384    21535893.951   113171905.921 6  88185922.191 6
       883.869         688.729          41.000          41.000
  20428126.563    20428126.984    20428132.316   107350566.950 8  83649811.611 7
     -1267.546        -987.695          48.000          47.000
  21392070.370    21392069.780    21392076.943   114352901.686 8  88941141.355 6
      1077.558         838.105          48.000          41.000
  21624008.660    21624007.294    21624011.862   113634990.223 6  88546694.986 6
      2173.031        1693.277          38.000          38.000
  23271679.502    23271679.397    23271681.489   122293500.095 4  95293656.886 4
      2669.193        2079.893          29.000          29.000
  23146370.731    23146370.629    23146376.838   123600322.873 6  96133608.701 7
     -4874.340       -3791.144          41.000          42.000
  22795772.881    22795773.061    22795779.837   121642624.731 7  94610946.415 7
      3371.191        2622.039          47.000          43.000
  20890350.096    20890349.458    20890353.270   111710146.986 8  86885710.049 7
     -1403.707       -1091.771          49.000          43.000
  20344263.595    20344262.678    20344269.558   108446380.323 8  84347213.621 7
     -2652.532       -2063.077          48.000          43.000
 14 12  9  0 39 30.0000000  0 15R15R17G05G28G17G24G02G06R01G10G12R13  .000194866
                                R02R24R14
  21477704.544    21477705.391    21477711.352   114770349.781 8  89265861.781 7
      1046.201         813.716          48.000          46.000
  21621940.759    21621941.728    21621946.235   115703391.487 8  89991562.669 7
       663.212         515.833          49.000          46.000
  25035241.913    25035242.055    25035246.241   131561083.247 3 102515135.876 3
      3154.434        2458.008          18.000          19.000
  22556457.381    22556456.104    22556459.906   118534966.033 5  92364921.154 5
     -3249.662       -2532.197          31.000          31.000
  22023662.200    22023662.246    22023665.448   115735131.607 6  90183236.768 6
     -1480.581       -1153.697          40.000          40.000
  23486558.636    23486558.803    23486564.034   123422708.843 4  96173537.718 4
      -999.955        -779.182          29.000          28.000
  21530880.137    21530879.525    21530880.032   113145557.673 6  88165391.058 6
       872.702         680.031          40.000          41.000
  20435400.158    20435400.683    20435406.214   107388790.846 7  83679596.435 7
     -1280.697        -997.948          47.000          47.000
  21386085.127    21386085.030    21386092.642   114320910.071 8  88916258.963 6
      1055.222         820.726          48.000          41.000
  21611641.706    21611641.031    21611645.231   113570004.490 6  88496056.729 6
      2159.354        1682.614          37.000          37.000
  23256459.850    23256459.579    23256461.748   122213519.860 4  95231334.582 4
      2662.797        2074.904          29.000          29.000
  23173763.198    23173761.286    23173767.937   123746590.059 6  96247371.888 7
     -4876.707       -3792.991          41.000          42.000
  22776826.430    22776829.100    22776835.947   121541537.272 7  94532322.855 7
      3367.934        2619.506          46.000          43.000
  20898232.915    20898232.575    20898235.943   111752298.800 8  86918494.736 7
     -1406.386       -1093.852          49.000          42.000
  20359258.448    20359257.732    20359264.794   108526312.649 8  84409383.146 7
     -2676.240       -2081.518          48.000          43.000
 14 12  9  0 40  0.0000000  0 15R15R17G05G28G17G24G02G06R01G10G12R13  .000204599
                                R02R24R14
  21471899.478    21471899.490    21471905.177   114739323.955 8  89241730.547 7
      1021.848         794.771          48.000          46.000
  21618231.470    21618231.024    21618234.284   115683529.828 8  89976114.689 7
       660.595         513.795          49.000          46.000
  25017222.793    25017225.299    25017228.814   131466399.712 2 102441356.436 2
      3157.461        2460.379          17.000          17.000
  22575039.277    22575038.229    22575042.157   118632616.407 5  92441012.221 5
     -3260.651       -2540.754          30.000          31.000
  22032124.185    22032123.798    22032126.928   115779597.267 6  90217885.267 6
     -1484.155       -1156.480          40.000          40.000
  23492310.146    23492310.486    23492315.079   123452932.073 4  96197088.243 4
     -1015.178        -791.046          29.000          29.000
  21525925.698    21525925.266    21525925.623   113119522.552 6  88145103.923 6
       862.666         672.206          40.000          41.000
  20442744.976    20442745.267    20442750.721   107427386.548 7  83709670.979 7
     -1292.657       -1007.265          47.000          47.000
  21380222.006    21380221.682    21380229.439   114289566.564 8  88891880.640 6
      1033.980         804.208          48.000          41.000
  21599350.211    21599348.720    21599353.325   113505409.101 6  88445722.633 6
      2146.679        1672.738          37.000          38.000
  23241272.271    23241272.277    23241274.735   122133711.203 4  95169145.974 5
      2657.474        2070.760          29.000          30.000
  23201160.867    23201161.263    23201168.666   123892904.990 6  96361172.202 7
     -4877.892       -3793.910          40.000          42.000
  22757903.086    22757900.624    22757907.039   121440527.148 7  94453759.446 7
      3365.754        2617.808          47.000          43.000
  20906126.323    20906125.811    20906129.022   111794509.006 8  86951324.844 7
     -1407.927       -1095.056          49.000          43.000
  20374382.420    20374381.779    20374388.828   108606932.566 7  84472087.468 7
     -2698.725       -2099.006          47.000          43.000
 14 12  9  0 40 30.0000000  0 15R15R17G05G28G17G24G02G06R01G10G12R13  .000214327
                                R02R24R14
  21466231.060    21466230.945    21466236.909   114709033.912 8  89218171.584 7
       997.303         775.680          48.000          46.000
  21614534.159    21614534.031    21614537.655   115663748.309 8  89960729.043 7
       657.998         511.779          49.000          46.000
  24999189.950    24999189.922    24999193.736   131371629.847 3 102367509.692 2
      3160.278        2462.582          18.000          17.000
  22593684.944    22593684.346    22593688.286   118730600.298 5  92517363.173 5
     -3271.732       -2549.400          31.000          31.000
  22040606.903    22040606.783    22040609.796   115824174.764 6  90252620.914 6
     -1487.871       -1159.378          40.000          40.000
  23498149.095    23498148.940    23498154.633   123483616.108 4  96220997.835 4
     -1030.560        -803.040          29.000          29.000
  21521029.642    21521028.900    21521029.085   113093792.041 6  88125054.149 6
       852.548         664.326          40.000          41.000
  20450158.499    20450158.765    20450164.219   107466344.697 8  83740027.947 7
     -1304.703       -1016.652          48.000          47.000
  21374479.082    21374478.770    21374486.800   114258866.696 8  88868002.922 7
      1012.516         787.515          48.000          42.000
  21587131.076    21587130.015    21587134.671   113441199.250 6  88395688.952 6
      2133.797        1662.698          37.000          38.000
  23226117.217    23226116.921    23226119.263   122054068.628 5  95107086.781 5
      2651.926        2066.434          30.000          30.000
  23228568.401    23228568.648    23228575.473   124039255.784 6  96475000.418 7
     -4878.941       -3794.727          40.000          42.000
  22738984.024    22738984.763    22738991.711   121339591.319 7  94375253.793 7
      3363.128        2615.761          46.000          43.000
  20914029.683    20914029.009    20914032.097   111836769.181 8  86984193.816 7
     -1409.544       -1096.310          49.000          43.000
  20389632.750    20389632.076    20389639.893   108688228.541 7  84535317.614 7
     -2721.148       -2116.449          47.000          43.000
 14 12  9  0 41  0.0000000  0 15R15R17G05G28G17G24G02G06R01G10G12R13  .000224054
                                R02R24R14
  21460700.999    21460701.838    21460707.862   114679488.890 8  89195192.080 7
       972.306         756.242          48.000          45.000
  21610855.205    21610854.659    21610857.400   115644054.154 8  89945411.338 7
       654.893         509.362          49.000          46.000
  24981142.228    24981141.713    24981144.381   131276783.953 3 102293603.720 2
      3162.589        2464.363          18.000          17.000
  22612395.295    22612394.388    22612399.129   118828924.324 5  92593979.167 5
     -3283.204       -2558.334          30.000          30.000
  22049112.644    22049112.641    22049115.191   115868872.852 6  90287450.531 6
     -1492.054       -1162.632          40.000          40.000
  23504076.917    23504076.820    23504081.949   123514767.248 4  96245271.421 4
     -1046.204        -815.225          28.000          29.000
  21516192.790    21516192.106    21516192.162   113068373.881 6  88105247.764 6
       841.951         656.069          40.000          40.000
  20457642.169    20457642.365    20457647.943   107505671.561 7  83770672.223 7
     -1317.105       -1026.313          47.000          47.000
  21368858.433    21368858.313    21368865.870   114228821.908 8  88844634.715 7
       990.455         770.355          49.000          42.000
  21574987.234    21574986.641    21574991.736   113377386.438 6  88345964.656 6
      2120.362        1652.237          38.000          38.000
  23210994.982    23210994.713    23210997.583   121974602.672 5  95045165.221 5
      2645.799        2061.657          30.000          30.000
  23255983.547    23255982.922    23255990.030   124185646.368 6  96588859.582 7
     -4880.414       -3795.868          40.000          42.000
  22720084.378    22720085.280    22720092.950   121238742.188 7  94296815.577 7
      3360.029        2613.359          46.000          44.000
  20921942.449    20921942.244    20921945.839   111879087.114 8  87017107.703 7
     -1411.670       -1097.960          49.000          43.000
  20405010.870    20405010.629    20405018.897   108770205.138 7  84599077.132 7
     -2743.957       -2134.183          47.000          43.000
 14 12  9  0 41 30.0000000  0 15R15R17G05G28G17G24G02G06R01G10G12R13  .000233786
                                R02R24R14
  21455313.819    21455314.068    21455319.816   114650696.479 8  89172797.934 7
       947.378         736.850          48.000          45.000
  21607190.314    21607190.222    21607194.095   115624451.147 8  89930164.531 7
       652.085         507.180          49.000          46.000
  24963079.403    24963079.516    24963084.024   131181869.261 3 102219644.119 3
      3165.187        2466.392          18.000          18.000
  22631169.223    22631169.794    22631174.892   118927591.486 4  92670862.545 5
     -3294.421       -2567.085          29.000          30.000
  22057642.760    22057642.396    22057645.034   115913696.449 6  90322377.931 6
     -1496.029       -1165.734          40.000          40.000
  23510094.520    23510094.192    23510099.735   123546389.119 4  96269911.785 4
     -1061.682        -827.274          28.000          28.000
  21511415.985    21511415.340    21511415.676   113043272.487 6  88085688.207 6
       831.645         648.041          40.000          40.000
  20465196.411    20465196.668    20465202.282   107545370.015 7  83801606.049 7
     -1329.246       -1035.772          47.000          47.000
  21363361.998    21363361.738    21363369.737   114199439.545 8  88821781.729 7
       968.531         753.303          49.000          42.000
  21562921.885    21562920.509    21562925.581   113313978.159 6  88296555.571 6
      2107.008        1641.826          38.000          38.000
  23195908.021    23195908.171    23195910.732   121895320.863 5  94983387.154 5
      2639.800        2056.987          31.000          31.000
  23283406.014    23283404.373    23283412.280   124332077.368 6  96702750.197 7
     -4881.513       -3796.718          39.000          42.000
  22701205.791    22701204.689    22701211.277   121137988.641 7  94218451.715 7
      3357.017        2611.013          46.000          43.000
  20929868.379    20929867.912    20929871.299   111921467.438 8  87050070.127 7
     -1413.541       -1099.417          49.000          43.000
  20420518.406    20420517.416    20420525.279   108852863.105 7  84663366.604 7
     -2766.375       -2151.621          47.000          44.000
 14 12  9  0 42  0.0000000  0 15R15R17G05G28G17G24G02G06R01G10G12R13  .000243516
                                R02R24R14
  21450065.865    21450066.147    21450071.551   114622651.949 8  89150985.474 7
       922.360         717.396          48.000          45.000
  21603543.023    21603542.962    21603546.344   115604933.218 8  89914983.887 7
       649.278         504.998          49.000          46.000
  24945005.300    24945004.940    24945009.272   131086882.882 3 102145628.690 3
      3167.435        2468.126          19.000          19.000
  22650011.290    22650010.544    22650014.538   119026595.102 5  92748008.092 5
     -3305.646       -2575.818          30.000          30.000
  22066194.934    22066194.811    22066197.915   115958641.353 6  90357399.861 6
     -1500.169       -1168.963          40.000          40.000
  23516200.440    23516200.069    23516204.969   123578474.478 4  96294913.326 4
     -1077.198        -839.377          28.000          28.000
  21506698.592    21506697.859    21506698.222   113018482.428 6  88066371.249 6
       821.186         639.889          41.000          41.000
  20472820.330    20472820.577    20472825.859   107585433.166 7  83832824.055 7
     -1341.454       -1045.288          47.000          47.000
  21357989.436    21357989.046    21357995.947   114170717.833 8  88799442.594 7
       946.403         736.091          49.000          42.000
  21550932.396    21550930.938    21550936.634   113250972.813 6  88247460.462 6
      2093.466        1631.271          38.000          38.000
  23180855.539    23180855.669    23180858.382   121816220.854 5  94921750.758 5
      2633.673        2052.215          31.000          31.000
  23310832.348    23310832.144    23310840.019   124478539.067 6  96816664.692 6
     -4882.471       -3797.468          39.000          41.000
  22682341.115    22682341.195    22682347.486   121037329.736 7  94140161.463 7
      3353.696        2608.431          47.000          43.000
  20937804.541    20937804.087    20937807.202   111963904.444 8  87083076.633 7
     -1415.433       -1100.890          49.000          43.000
  20436150.826    20436150.165    20436157.815   108936193.688 7  84728179.221 7
     -2788.819       -2169.077          46.000          44.000
 14 12  9  0 42 30.0000000  0 15R15R17G05G28G17G24G02G06R01G10G12R13  .000253244
                                R02R24R14
  21444957.005    21444957.291    21444963.497   114595353.140 8  89129753.017 7
       897.537         698.083          48.000          45.000
  21599909.710    21599910.018    21599913.529   115585494.640 8  89899864.967 7
       646.641         502.940          48.000          46.000
  24926913.201    24926915.562    24926920.170   130991823.103 3 102071556.038 3
      3169.885        2470.038          20.000          20.000
  22668913.976    22668912.503    22668916.842   119125929.113 5  92825411.088 5
     -3316.607       -2584.371          30.000          30.000
  22074770.051    22074769.982    22074773.130   116003703.603 6  90392513.234 6
     -1504.033       -1171.973          40.000          40.000
  23522392.577    23522392.942    23522397.827   123611017.300 4  96320271.319 4
     -1092.401        -851.217          28.000          28.000
  21502039.069    21502038.692    21502039.514   112993998.918 6  88047293.155 6
       811.009         631.960          41.000          40.000
  20480512.288    20480512.654    20480517.792   107625854.681 7  83864321.301 7
     -1353.318       -1054.534          47.000          47.000
  21352739.561    21352739.141    21352746.569   114142655.029 8  88777615.931 7
       924.371         718.958          49.000          42.000
  21539019.096    21539017.678    21539023.022   113188368.950 6  88198678.194 6
      2080.084        1620.843          38.000          38.000
  23165837.687    23165837.852    23165840.253   121737300.600 5  94860254.423 5
      2627.597        2047.479          31.000          31.000
  23338265.653    23338265.190    23338272.113   124625022.749 6  96930596.272 7
     -4883.149       -3797.999          40.000          42.000
  22663493.299    22663494.884    22663501.956   120936765.652 7  94061944.960 7
      3350.507        2605.953          47.000          44.000
  20945749.599    20945749.335    20945753.300   112006393.028 8  87116123.251 7
     -1417.105       -1102.194          49.000          43.000
  20451908.293    20451907.449    20451915.118   109020188.906 7  84793508.774 7
     -2810.866       -2186.226          46.000          43.000
 14 12  9  0 43  0.0000000  0 15R15R17G05G28G17G24G02G06R01G10G12R13  .000262972
                                R02R24R14
  21439989.250    21439989.465    21439995.633   114568806.143 8  89109105.311 7
       872.663         678.736          48.000          46.000
  21596293.808    21596293.568    21596297.182   115566139.493 8  89884810.930 7
       644.078         500.949          49.000          46.000
  24908814.079    24908813.852    24908817.903   130896697.130 3 101997431.838 3
      3172.256        2471.859          20.000          20.000
  22687879.793    22687879.096    22687883.138   119225596.992 4  92903074.224 4
     -3327.507       -2592.858          29.000          29.000
  22083369.044    22083368.712    22083371.966   116048889.241 6  90427722.752 6
     -1507.938       -1175.021          40.000          40.000
  23528673.207    23528673.157    23528678.760   123644021.567 4  96345988.882 4
     -1107.521        -862.993          28.000          28.000
  21497439.315    21497439.004    21497439.958   112969826.569 6  88028457.529 6
       800.843         624.036          41.000          41.000
  20488272.987    20488273.385    20488278.543   107666637.632 8  83896100.188 7
     -1365.169       -1063.768          48.000          47.000
  21347614.273    21347613.992    21347621.282   114115258.870 8  88756307.776 7
       902.348         701.824          49.000          42.000
  21527184.075    21527182.716    21527188.048   113126174.266 6  88150214.764 6
      2066.585        1610.326          38.000          38.000
  23150855.796    23150855.445    23150857.917   121658567.369 5  94798903.822 5
      2621.557        2042.769          31.000          31.000
  23365701.877    23365701.248    23365708.046   124771529.472 6  97044545.755 7
     -4883.612       -3798.361          40.000          42.000
  22644670.259    22644668.652    22644675.622   120836305.407 7  93983809.225 7
      3347.132        2603.317          47.000          44.000
  20953706.345    20953705.624    20953709.128   112048937.913 8  87149213.654 7
     -1418.801       -1103.509          49.000          42.000
  20467790.238    20467789.235    20467797.360   109104849.540 7  84859355.875 7
     -2832.765       -2203.260          46.000          43.000
 14 12  9  0 43 30.0000000  0 15R15R17G05G28G17G24G02G06R01G10G12R13  .000272702
                                R02R24R14
  21435163.780    21435163.441    21435168.575   114543015.114 8  89089045.572 7
       847.143         658.891          48.000          46.000
  21592692.068    21592692.122    21592696.246   115546869.165 8  89869822.856 7
       641.063         498.605          49.000          46.000
  24890699.548    24890701.356    24890704.350   130801509.567 3 101923259.609 3
      3174.039        2473.290          20.000          20.000
  22706910.374    22706908.770    22706913.023   119325598.978 4  92980997.711 4
     -3338.806       -2601.653          29.000          29.000
  22091991.009    22091991.405    22091994.231   116094200.724 6  90463030.329 6
     -1512.357       -1178.458          40.000          40.000
  23535041.444    23535041.157    23535047.390   123677487.226 4  96372065.984 4
     -1123.030        -875.094          28.000          28.000
  21492899.857    21492898.859    21492899.965   112945967.122 6  88009865.721 6
       790.218         615.756          41.000          41.000
  20496102.896    20496103.099    20496108.430   107707782.483 7  83928161.073 7
     -1377.383       -1073.285          47.000          47.000
  21342615.357    21342614.613    21342621.815   114088534.638 8  88735522.226 7
       879.693         684.205          50.000          42.000
  21515427.782    21515426.546    21515431.417   113064394.288 6  88102074.477 6
      2052.501        1599.357          38.000          38.000
  23135910.862    23135909.780    23135912.301   121580026.066 5  94737702.776 5
      2614.905        2037.587          32.000          32.000
  23393141.583    23393141.307    23393148.599   124918057.101 6  97158511.503 7
     -4884.464       -3799.020          40.000          43.000
  22625862.923    22625863.313    22625869.977   120735955.790 7  93905759.535 7
      3343.249        2600.308          47.000          43.000
  20961673.791    20961672.844    20961676.097   112091541.088 8  87182349.400 7
     -1420.939       -1105.169          49.000          42.000
  20483796.847    20483796.508    20483803.798   109190174.409 7  84925719.607 7
     -2855.078       -2220.616          46.000          43.000
 14 12  9  0 44  0.0000000  0 15R15R17G05G28G17G24G02G06R01G10G12R13  .000282436
                                R02R24R14
  21430479.462    21430479.724    21430485.460   114517987.044 8  89069579.252 7
       821.839         639.208          48.000          46.000
  21589108.361    21589107.982    21589111.897   115527687.668 8  89854903.873 7
       638.179         496.362          49.000          47.000
  24872577.508    24872576.314    24872581.856   130706267.921 3 101849045.261 3
      3175.877        2474.708          20.000          20.000
  22726004.044    22726003.089    22726006.927   119425938.163 4  93059183.927 4
     -3349.932       -2610.329          29.000          29.000
  22100638.918    22100638.910    22100641.725   116139643.658 6  90498440.342 6
     -1516.645       -1181.799          40.000          40.000
  23541497.732    23541498.091    23541503.944   123711417.655 4  96398505.213 4
     -1138.471        -887.118          28.000          28.000
  21488419.400    21488418.751    21488420.038   112922424.714 6  87991520.953 6
       779.772         607.614          41.000          41.000
  20504001.380    20504002.006    20504007.384   107749292.096 7  83960506.184 7
     -1389.406       -1082.657          47.000          47.000
  21337743.061    21337743.028    21337750.389   114062489.994 8  88715265.253 7
       857.089         666.629          50.000          42.000
  21503751.369    21503750.602    21503755.534   113003036.635 6  88054263.284 6
      2038.479        1588.428          39.000          39.000
  23121002.179    23121001.947    23121004.420   121501683.718 5  94676656.754 5
      2608.364        2032.491          32.000          32.000
  23420585.189    23420585.028    23420592.456   125064606.508 6  97272494.177 7
     -4885.030       -3799.459          40.000          42.000
  22607080.261    22607080.383    22607087.246   120635725.906 7  93827802.973 7
      3339.218        2597.168          47.000          43.000
  20969652.236    20969651.602    20969655.121   112134206.926 8  87215533.873 7
     -1422.927       -1106.720          49.000          42.000
  20499928.743    20499928.010    20499935.447   109276164.185 7  84992600.480 7
     -2877.068       -2237.720          47.000          43.000
 14 12  9  0 44 30.0000000  0 15R15R17G05G28G17G24G02G06R01G10G12R13  .000292170
                                R02R24R14
  21425936.296    21425937.332    21425943.905   114493717.091 7  89050702.582 7
       796.417         619.439          47.000          46.000
  21585539.079    21585538.778    21585542.800   115508588.129 8  89840048.636 7
       635.359         494.172          49.000          47.000
  24854441.750    24854441.299    24854445.699   130610968.673 3 101774786.026 3
      3177.597        2476.053          20.000          20.000
  22745161.314    22745159.606    22745164.034   119526606.943 4  93137626.980 4
     -3361.025       -2618.976          29.000          29.000
  22109310.219    22109310.406    22109313.424   116185212.302 6  90533948.305 6
     -1520.974       -1185.169          40.000          40.000
  23548041.933    23548041.791    23548047.946   123745805.154 4  96425300.617 4
     -1153.785        -899.040          28.000          28.000
  21483998.927    21483998.137    21483999.364   112899193.568 7  87973418.729 7
       769.260         599.426          42.000          42.000
  20511968.471    20511968.891    20511974.371   107791158.962 7  83993129.677 7
     -1401.434       -1092.022          47.000          47.000
  21332997.867    21332997.489    21333005.052   114037122.014 8  88695534.558 7
       834.329         648.925          50.000          42.000
  21492156.221    21492154.909    21492159.384   112942098.842 6  88006779.254 6
      2024.293        1577.375          39.000          39.000
  23106131.042    23106130.972    23106133.496   121423537.268 5  94615763.382 5
      2601.661        2027.277          32.000          32.000
  23448031.321    23448031.182    23448038.974   125211167.518 6  97386485.875 7
     -4885.458       -3799.792          40.000          42.000
  22588319.224    22588319.076    22588325.684   120535614.373 7  93749938.458 7
      3335.114        2593.980          46.000          43.000
  20977640.856    20977640.466    20977644.019   112176929.066 8  87248762.143 7
     -1424.934       -1108.278          48.000          42.000
  20516182.851    20516182.576    20516189.807   109362809.253 7  85059991.021 7
     -2899.004       -2254.777          47.000          43.000
 14 12  9  0 45  0.0000000  0 15R15R17G05G28G17G24G02G06R01G10G12R13  .000301905
                                R02R24R14
  21421537.789    21421538.100    21421544.566   114470207.745 8  89032417.487 7
       771.141         599.776          48.000          46.000
  21581984.476    21581984.758    21581988.965   115489570.498 8  89825257.103 7
       632.758         492.146          49.000          47.000
  24836295.688    24836296.087    24836300.693   130515615.215 3 101700484.545 3
      3179.494        2477.525          19.000          19.000
  22764379.830    22764379.172    22764383.522   119627604.660 4  93216326.340 4
     -3371.885       -2627.430          29.000          29.000
  22118006.345    22118006.298    22118009.186   116230908.782 6  90569555.884 6
     -1525.162       -1188.431          40.000          40.000
  23554671.787    23554672.340    23554678.364   123780648.931 4  96452451.563 4
     -1168.850        -910.782          28.000          28.000
  21479637.719    21479636.692    21479637.941   112876274.013 7  87955559.302 7
       759.000         591.427          42.000          42.000
  20520003.444    20520003.684    20520009.268   107833382.032 7  84026030.729 7
     -1413.176       -1101.173          47.000          47.000
  21328379.050    21328378.721    21328386.683   114012434.153 8  88676332.853 7
       811.768         631.374          50.000          42.000
  21480640.888    21480639.396    21480644.189   112881584.676 6  87959625.326 6
      2010.222        1566.410          39.000          39.000
  23091298.116    23091298.196    23091300.713   121345589.946 5  94555025.155 5
      2595.101        2022.159          32.000          32.000
  23475480.550    23475479.118    23475486.993   125357736.861 6  97500484.060 6
     -4885.565       -3799.879          40.000          41.000
  22569583.271    22569582.823    22569587.406   120435626.394 7  93672170.041 7
      3330.982        2590.760          47.000          42.000
  20985640.954    20985640.400    20985644.004   112219708.466 8  87282034.949 7
     -1426.737       -1109.684          48.000          42.000
  20532560.310    20532559.217    20532566.499   109450106.508 7  85127888.814 7
     -2920.559       -2271.544          47.000          42.000
 14 12  9  0 45 30.0000000  0 15R15R17G05G28G17G24G02G06R01G10G12R13  .000311642
                                R02R24R14
  21417281.511    21417281.335    21417287.919   114447459.643 8  89014724.478 7
       745.474         579.817          48.000          46.000
  21578446.102    21578445.900    21578450.436   115470633.442 8  89810528.245 7
       629.820         489.864          49.000          47.000
  24818142.727    24818140.912    24818145.622   130420209.568 3 101626142.413 3
      3180.931        2478.627          19.000          20.000
  22783661.631    22783661.102    22783665.377   119728929.730 4  93295280.781 4
     -3383.035       -2636.117          28.000          29.000
  22126726.350    22126726.338    22126729.253   116276733.466 6  90605263.353 6
     -1529.694       -1191.963          40.000          40.000
  23561388.877    23561389.433    23561395.227   123815947.136 4  96479956.605 4
     -1184.265        -922.788          28.000          28.000
  21475335.413    21475334.701    21475335.488   112853665.449 7  87937942.209 7
       748.341         583.129          42.000          42.000
  20528105.804    20528106.110    20528111.582   107875959.375 7  84059207.834 7
     -1425.229       -1110.563          47.000          47.000
  21323887.951    21323887.862    21323896.380   113988429.210 8  88657662.317 7
       788.655         613.403          50.000          42.000
  21469205.814    21469205.136    21469209.684   112821496.989 6  87912803.724 6
      1995.683        1555.082          39.000          39.000
  23076503.887    23076503.920    23076506.229   121267844.454 5  94494444.207 5
      2588.022        2016.636          32.000          32.000
  23502927.320    23502927.031    23502935.312   125504310.485 6  97614485.574 6
     -4885.917       -3800.147          39.000          40.000
  22550867.170    22550868.376    22550873.644   120335766.182 7  93594501.008 7
      3326.366        2587.172          47.000          42.000
  20993652.043    20993651.160    20993654.574   112262544.660 8  87315351.918 6
     -1428.897       -1111.361          48.000          41.000
  20549058.823    20549057.382    20549065.093   109538052.191 7  85196290.941 7
     -2942.380       -2288.513          46.000          42.000
 14 12  9  0 46  0.0000000  0 15R15R17G05G28G17G24G02G06R01G10G12R13  .000321381
                                R02R24R14
  21413167.399    21413167.999    21413173.726   114425478.083 8  88997627.664 7
       720.227         560.178          48.000          46.000
  21574923.804    21574923.060    21574926.510   115451779.201 8  89795863.799 7
       627.420         487.993          50.000          47.000
  24799977.539    24799978.179    24799981.881   130324757.204 3 101551763.909 3
      3182.859        2480.139          21.000          21.000
  22803005.931    22803004.875    22803009.291   119830582.972 4  93374490.949 4
     -3393.580       -2644.353          28.000          28.000
  22135471.850    22135471.781    22135474.633   116322689.984 6  90641073.543 6
     -1533.773       -1195.146          40.000          40.000
  23568192.616    23568193.313    23568198.660   123851700.955 4  96507816.669 4
     -1199.078        -934.343          28.000          28.000
  21471092.939    21471092.067    21471092.745   112831369.972 7  87920569.085 7
       738.280         575.282          42.000          42.000
  20536275.408    20536275.952    20536281.321   107918891.932 7  84092661.731 7
     -1436.671       -1119.480          47.000          47.000
  21319525.981    21319525.795    21319534.022   113965112.722 8  88639527.252 7
       765.991         595.769          50.000          42.000
  21457854.410    21457852.954    21457857.907   112761841.473 6  87866318.874 6
      1981.589        1544.095          39.000          39.000
  23061748.625    23061748.669    23061751.604   121190306.155 5  94434024.695 5
      2581.422        2011.503          32.000          32.000
  23530377.435    23530376.214    23530384.114   125650886.770 6  97728489.171 6
     -4885.538       -3799.858          39.000          40.000
  22532180.529    22532179.693    22532185.696   120236041.040 7  93516937.022 7
      3322.175        2583.918          47.000          42.000
  21001673.819    21001673.233    21001676.623   112305440.164 8  87348715.036 6
     -1430.535       -1112.641          49.000          41.000
  20565677.668    20565677.081    20565684.620   109626645.011 7  85265196.397 7
     -2963.507       -2304.948          46.000          42.000
 14 12  9  0 46 30.0000000  0 15R15R17G05G28G17G24G02G06R01G10G12R13  .000331119
                                R02R24R14
  21409195.706    21409196.133    21409202.572   114404257.423 8  88981122.660 7
       694.568         540.220          48.000          46.000
  21571412.671    21571413.179    21571417.540   115433000.169 8  89781257.849 7
       624.614         485.811          49.000          47.000
  24781803.341    24781804.339    24781808.701   130229254.019 3 101477345.780 3
      3184.114        2481.148          22.000          22.000
  22822410.860    22822409.721    22822414.243   119932555.868 4  93453950.192 4
     -3404.508       -2652.851          28.000          28.000
  22144240.769    22144240.773    22144243.848   116368772.158 6  90676981.656 6
     -1538.273       -1198.658          40.000          40.000
  23575081.956    23575081.772    23575088.116   123887902.013 4  96536025.249 4
     -1214.223        -946.159          28.000          28.000
  21466908.645    21466907.612    21466908.276   112809380.652 7  87903434.523 6
       727.792         567.110          42.000          41.000
  20544511.184    20544511.696    20544517.062   107962171.237 7  84126385.827 7
     -1448.497       -1128.698          47.000          47.000
  21315292.548    21315292.080    21315299.885   113942480.844 8  88621924.660 6
       742.872         577.790          49.000          41.000
  21446583.687    21446582.567    21446587.301   112702614.909 6  87820168.277 6
      1966.962        1532.696          39.000          39.000
  23047032.186    23047032.188    23047035.050   121112970.887 5  94373763.408 5
      2574.335        2005.976          33.000          33.000
  23557823.253    23557823.646    23557832.701   125797455.161 6  97842486.617 6
     -4885.516       -3799.840          39.000          41.000
  22513517.710    22513517.579    22513522.504   120136448.720 8  93439476.347 7
      3317.415        2580.214          48.000          43.000
  21009705.170    21009704.450    21009707.823   112348387.625 8  87382118.547 6
     -1432.527       -1114.185          49.000          41.000
  20582416.259    20582416.410    20582424.200   109715874.009 7  85334596.659 7
     -2984.931       -2321.613          46.000          42.000
 14 12  9  0 47  0.0000000  0 15R15R17G05G28G17G24G02G06R01G10G12R13  .000340854
                                R02R24R14
  21405367.404    21405367.555    21405374.095   114383796.952 8  88965208.905 7
       669.441         520.677          48.000          46.000
  21567917.805    21567917.623    21567922.048   115414293.499 8  89766708.168 8
       622.497         484.164          50.000          48.000
  24763622.152    24763621.358    24763624.997   130133700.962 3 101402888.779 3
      3186.069        2482.644          22.000          22.000
  22841874.626    22841874.296    22841879.421   120034845.173 4  93533655.977 4
     -3414.814       -2660.883          28.000          28.000
  22153033.931    22153033.821    22153036.902   116414978.670 6  90712986.655 6
     -1542.184       -1201.702          40.000          40.000
  23582055.070    23582055.665    23582061.483   123924546.650 4  96564579.464 4
     -1228.748        -957.467          28.000          28.000
  21462781.834    21462780.872    21462781.789   112787695.657 7  87886537.093 7
       717.903         559.404          42.000          42.000
  20552812.323    20552812.837    20552818.303   108005793.690 7  84160377.306 7
     -1459.633       -1137.378          47.000          47.000
  21311186.564    21311186.516    21311193.982   113920534.078 8  88604854.936 6
       720.196         560.153          49.000          41.000
  21435394.680    21435393.746    21435398.838   112643818.421 6  87774352.799 6
      1952.797        1521.663          39.000          39.000
  23032354.059    23032354.580    23032357.741   121035839.780 5  94313661.203 5
      2567.713        2000.817          33.000          33.000
  23585269.566    23585268.435    23585277.449   125944009.368 6  97956473.020 6
     -4884.744       -3799.235          39.000          41.000
  22494877.740    22494877.906    22494884.763   120036991.836 7  93362121.010 7
      3313.091        2576.846          46.000          43.000
  21017746.282    21017745.509    21017748.806   112391385.326 8  87415561.151 6
     -1433.959       -1115.300          49.000          41.000
  20599275.724    20599274.092    20599281.515   109805733.861 7  85404487.586 7
     -3005.665       -2337.738          46.000          42.000
 14 12  9  0 47 30.0000000  0 15R15R17G05G28G17G24G02G06R01G10G12R13  .000350590
                                R02R24R14
  21401682.123    21401682.438    21401688.628   114364104.179 8  88949892.250 7
       643.366         500.396          48.000          45.000
  21564435.965    21564436.147    21564440.546   115395663.773 8  89752218.335 7
       619.469         481.811          50.000          47.000
  24745429.977    24745430.114    24745434.394   130038105.623 3 101328398.848 3
      3186.979        2483.371          22.000          23.000
  22861401.393    22861400.789    22861405.665   120137454.615 4  93613611.223 4
     -3425.886       -2669.521          28.000          28.000
  22161851.741    22161851.678    22161854.656   116461316.222 6  90749093.766 6
     -1547.016       -1205.463          39.000          39.000
  23589113.791    23589113.358    23589120.017   123961638.154 4  96593481.888 4
     -1244.024        -969.376          28.000          28.000
  21458713.847    21458713.189    21458713.953   112766319.792 7  87869880.546 7
       707.145         551.019          42.000          42.000
  20561179.282    20561179.886    20561185.500   108049762.774 7  84194638.883 7
     -1471.638       -1146.726          47.000          47.000
  21307210.585    21307210.397    21307218.273   113899280.711 8  88588324.522 6
       696.614         541.815          49.000          41.000
  21424289.993    21424288.672    21424293.339   112585460.134 6  87728878.772 6
      1937.714        1509.907          38.000          39.000
  23017717.203    23017717.767    23017720.707   120958920.817 5  94253724.303 5
      2560.108        1994.896          34.000          33.000
  23612712.088    23612711.145    23612720.743   126090551.302 6  98070449.883 6
     -4884.622       -3799.140          38.000          41.000
  22476266.943    22476266.736    22476274.195   119937680.299 7  93284878.696 7
      3307.662        2572.623          46.000          44.000
  21025797.227    21025796.783    21025799.734   112434438.196 8  87449046.656 6
     -1436.260       -1117.087          49.000          41.000
  20616250.977    20616250.039    20616257.979   109896225.705 7  85474870.064 7
     -3027.130       -2354.428          46.000          42.000
 14 12  9  0 48  0.0000000  0 15R15R17G05G28G17G24G02G06R01G10G12R13  .000360327
                                R02R24R14
  21398141.084    21398141.369    21398146.865   114345179.207 8  88935172.771 7
       618.004         480.672          48.000          45.000
  21560969.159    21560969.482    21560972.897   115377110.059 8  89737787.618 7
       617.214         480.058          50.000          47.000
  24727231.529    24727231.001    24727235.814   129942470.512 3 101253877.921 3
      3188.516        2484.548          23.000          23.000
  22880988.523    22880987.076    22880992.874   120240382.184 4  93693814.371 4
     -3436.213       -2677.568          27.000          27.000
  22170694.444    22170694.395    22170697.641   116507785.210 6  90785303.289 6
     -1551.176       -1208.707          39.000          40.000
  23596256.381    23596256.945    23596262.847   123999175.170 4  96622731.445 4
     -1258.646        -980.745          28.000          28.000
  21454704.676    21454704.012    21454704.999   112745251.971 6  87853464.032 6
       697.096         543.193          41.000          41.000
  20569612.126    20569612.537    20569618.174   108094076.338 7  84229168.887 7
     -1482.893       -1155.498          47.000          47.000
  21303365.082    21303364.749    21303372.830   113878722.981 8  88572335.150 6
       673.596         523.905          49.000          41.000
  21413267.936    21413267.399    21413272.247   112527542.631 6  87683748.213 6
      1923.173        1498.579          39.000          39.000
  23003121.740    23003121.216    23003123.948   120882216.041 5  94193954.296 5
      2553.179        1989.489          34.000          34.000
  23640150.925    23640150.880    23640160.280   126237075.905 6  98184413.267 6
     -4883.868       -3798.560          38.000          41.000
  22457685.637    22457684.528    22457690.699   119838518.226 7  93207752.636 7
      3302.849        2568.883          46.000          44.000
  21033858.973    21033858.197    21033861.829   112477546.162 8  87482575.026 7
     -1437.905       -1118.367          49.000          42.000
  20633344.191    20633344.219    20633351.623   109987345.153 7  85545740.678 7
     -3047.781       -2370.491          46.000          42.000
 14 12  9  0 48 30.0000000  0 15R15R17G05G28G17G24G02G06R01G10G12R13  .000370068
                                R02R24R14
  21394743.551    21394744.261    21394750.236   114327027.809 8  88921054.963 7
       592.468         460.813          48.000          46.000
  21557517.453    21557517.396    21557520.158   115358635.787 8  89723418.700 7
       614.890         478.248          50.000          46.000
  24709027.818    24709026.516    24709030.984   129846802.382 4 101179331.251 3
      3189.773        2485.555          24.000          23.000
  22900635.934    22900635.626    22900639.988   120343630.416 4  93774267.375 4
     -3446.611       -2685.652          27.000          27.000
  22179563.538    22179563.014    22179566.268   116554389.925 6  90821618.570 6
     -1555.414       -1212.010          39.000          39.000
  23603485.384    23603485.307    23603491.038   124037159.912 4  96652329.885 4
     -1273.239        -992.132          28.000          28.000
  21450754.999    21450754.314    21450755.430   112724496.159 6  87837290.642 6
       687.012         535.336          41.000          41.000
  20578110.825    20578111.111    20578116.900   108138736.856 7  84263969.253 7
     -1494.092       -1164.229          47.000          47.000
  21299650.907    21299650.925    21299659.051   113858868.084 8  88556892.414 6
       650.438         505.896          49.000          41.000
  21402332.527    21402331.279    21402336.156   112470073.480 6  87638967.027 6
      1908.473        1487.120          38.000          38.000
  22988567.348    22988567.009    22988569.617   120805732.325 5  94134356.553 5
      2546.071        1983.955          34.000          34.000
  23667590.222    23667587.706    23667596.975   126383584.278 6  98298364.004 6
     -4882.951       -3797.853          38.000          41.000
  22439127.392    22439129.619    22439137.098   119739514.405 7  93130749.648 7
      3297.832        2564.983          46.000          43.000
  21041930.792    21041930.370    21041934.050   112520713.169 8  87516149.298 7
     -1439.536       -1119.638          49.000          42.000
  20650556.582    20650556.097    20650563.546   110079092.633 7  85617099.759 7
     -3068.323       -2386.468          47.000          42.000
 14 12  9  0 49  0.0000000  0 15R15R17G05G28G17G24G02G06R01G10G12R13  .000379809
                                R02R24R14
  21391491.389    21391491.600    21391497.708   114309647.650 8  88907537.014 7
       566.139         440.329          48.000          46.000
  21554078.954    21554078.592    21554082.033   115340236.170 8  89709107.854 7
       611.772         475.825          50.000          46.000
  24690814.047    24690813.807    24690819.491   129751099.820 3 101104757.749 3
      3190.315        2485.968          23.000          23.000
  22920342.458    22920342.788    22920347.942   120447193.194 4  93854965.474 4
     -3457.581       -2694.209          28.000          28.000
  22188457.159    22188456.981    22188460.211   116601127.587 6  90858037.451 6
     -1560.455       -1215.936          39.000          39.000
  23610797.395    23610797.601    23610803.590   124075586.352 4  96682272.500 4
     -1288.564       -1004.076          28.000          28.000
  21446864.017    21446863.183    21446864.186   112704048.152 6  87821357.098 6
       676.183         526.897          41.000          41.000
  20586674.306    20586674.609    20586680.440   108183738.674 7  84299035.560 7
     -1506.066       -1173.555          47.000          47.000
  21296068.017    21296067.779    21296075.573   113839714.481 8  88541995.124 6
       626.432         487.225          49.000          41.000
  21391481.821    21391480.602    21391485.235   112413051.780 6  87594534.504 6
      1892.926        1475.007          39.000          39.000
  22974054.571    22974054.736    22974057.213   120729468.286 5  94074929.983 5
      2538.106        1977.737          34.000          34.000
  23695020.694    23695020.428    23695028.850   126530068.415 6  98412295.904 6
     -4882.726       -3797.668          39.000          41.000
  22420608.463    22420606.480    22420613.967   119640669.439 7  93053870.209 7
      3291.818        2560.302          46.000          44.000
  21050013.578    21050013.209    21050016.982   112563935.135 8  87549766.322 7
     -1441.923       -1121.490          49.000          42.000
  20667884.757    20667883.836    20667891.471   110171460.396 7  85688941.281 7
     -3089.513       -2402.949          46.000          43.000
 14 12  9  0 49 30.0000000  0 15R15R17G05G28G17G24G02G06R01G10G12R13  .000389550
                                R02R24R14
  21388383.785    21388383.877    21388389.457   114293037.777 8  88894618.166 7
       540.748         420.583          48.000          46.000
  21550653.028    21550653.227    21550656.627   115321908.474 8  89694852.949 7
       609.694         474.209          50.000          46.000
  24672595.779    24672596.493    24672601.850   129655363.785 3 101030158.161 3
      3191.635        2486.994          23.000          22.000
  22940108.840    22940109.126    22940114.750   120551067.486 4  93935906.322 4
     -3467.693       -2702.090          27.000          27.000
  22197375.547    22197375.837    22197379.121   116647997.319 6  90894559.253 6
     -1564.599       -1219.161          39.000          39.000
  23618193.020    23618193.406    23618199.714   124114451.581 4  96712557.045 4
     -1302.779       -1015.155          28.000          28.000
  21443030.973    21443030.179    21443031.253   112683905.722 6  87805661.668 6
       666.283         519.185          41.000          41.000
  20595302.330    20595302.646    20595308.180   108229078.186 7  84334365.008 7
     -1516.969       -1182.053          47.000          46.000
  21292616.078    21292615.927    21292624.127   113821262.998 8  88527643.937 6
       603.232         469.182          49.000          41.000
  21380716.145    21380715.333    21380719.560   112356478.860 6  87550451.675 6
      1878.182        1463.523          39.000          39.000
  22959584.578    22959584.221    22959586.404   120653424.917 5  94015675.362 5
      2530.996        1972.206          34.000          34.000
  23722446.086    23722446.855    23722455.000   126676521.924 6  98526203.982 6
     -4881.288       -3796.547          40.000          41.000
  22402112.881    22402113.712    22402120.712   119541986.179 7  92977116.555 7
      3286.672        2556.301          46.000          43.000
  21058106.080    21058105.637    21058109.743   112607210.125 8  87583424.587 7
     -1443.436       -1122.674          48.000          42.000
  20685327.422    20685326.811    20685335.091   110264442.492 7  85761260.614 7
     -3109.644       -2418.611          46.000          43.000
 14 12  9  0 50  0.0000000  0 15R15R17G05G28G17G24G02G06R01G10G12R13  .000399290
                                R02R24R14
  21385419.566    21385419.760    21385425.837   114277198.948 8  88882299.020 7
       514.963         400.528          48.000          45.000
  21547242.772    21547242.056    21547245.572   115303651.322 8  89680652.901 7
       607.303         472.349          51.000          47.000
  24654371.572    24654372.454    24654378.249   129559595.988 3 100955533.830 3
      3192.648        2487.801          23.000          23.000
  22959935.853    22959935.218    22959939.925   120655250.661 4  94017087.845 4
     -3477.987       -2710.115          26.000          26.000
  22206319.979    22206320.077    22206322.971   116694998.973 6  90931183.848 6
     -1569.045       -1222.624          38.000          39.000
  23625671.981    23625672.447    23625678.553   124153752.501 4  96743181.072 4
     -1317.371       -1026.519          28.000          28.000
  21439255.876    21439255.277    21439256.148   112664067.752 6  87790203.477 6
       656.071         511.229          41.000          41.000
  20603994.041    20603994.152    20603999.685   108274752.798 7  84369955.572 7
     -1528.179       -1190.787          46.000          47.000
  21289296.501    21289296.331    21289304.131   113803515.288 8  88513840.138 7
       579.710         450.886          49.000          42.000
  21370036.278    21370035.391    21370040.164   112300356.945 6  87506720.290 6
      1863.066        1451.745          39.000          39.000
  22945155.786    22945155.877    22945158.209   120577604.566 5  93956594.523 5
      2523.433        1966.318          33.000          33.000
  23749868.068    23749866.141    23749874.525   126822940.231 6  98640084.677 6
     -4880.091       -3795.616          39.000          41.000
  22383651.905    22383651.209    22383657.507   119443468.239 7  92900491.493 7
      3281.036        2551.917          47.000          43.000
  21066208.852    21066208.313    21066212.095   112650537.261 8  87617123.411 7
     -1445.254       -1124.082          48.000          42.000
  20702885.095    20702884.364    20702892.499   110358033.866 7  85834053.829 7
     -3129.930       -2434.386          46.000          43.000
 14 12  9  0 50 30.0000000  0 15R15R17G05G28G17G24G02G06R01G10G12R13  .000409028
                                R02R24R14
  21382599.242    21382599.753    21382606.303   114262130.184 8  88870578.818 7
       489.413         380.657          48.000          45.000
  21543842.727    21543843.046    21543846.972   115285461.806 8  89666505.464 8
       605.220         470.729          50.000          48.000
  24636141.960    24636142.497    24636148.064   129463797.211 4 100880885.366 4
      3193.755        2488.644          24.000          24.000
  22979818.902    22979818.980    22979823.378   120759738.834 4  94098507.035 4
     -3488.067       -2717.981          27.000          27.000
  22215289.487    22215289.241    22215292.351   116742131.196 6  90967910.178 6
     -1573.294       -1225.942          39.000          39.000
  23633233.699    23633233.360    23633239.240   124193485.811 4  96774141.997 4
     -1331.676       -1037.678          27.000          27.000
  21435538.583    21435537.641    21435538.499   112644531.695 6  87774980.545 6
       646.136         503.486          41.000          41.000
  20612748.332    20612748.890    20612754.415   108320758.699 7  84405804.289 7
     -1539.070       -1199.274          47.000          47.000
  21286107.956    21286107.841    21286115.323   113786472.052 8  88500584.274 6
       556.289         432.669          49.000          41.000
  21359442.481    21359441.851    21359446.807   112244686.762 6  87463340.895 6
      1848.072        1440.062          40.000          40.000
  22930770.313    22930770.600    22930772.514   120502007.624 5  93897687.770 5
      2516.148        1960.630          33.000          33.000
  23777279.826    23777278.169    23777286.017   126969317.622 6  98753933.558 6
     -4878.571       -3794.439          38.000          41.000
  22365221.024    22365220.817    22365226.678   119345118.168 7  92823997.003 7
      3275.538        2547.637          47.000          43.000
  21074320.927    21074320.039    21074324.257   112693914.547 8  87650861.241 7
     -1446.770       -1125.267          48.000          43.000
  20720555.618    20720555.206    20720563.137   110452228.354 7  85907316.133 7
     -3149.842       -2449.881          47.000          43.000
 14 12  9  0 51  0.0000000  0 15R15R17G05G28G17G24G02G06R01G10G12R13  .000418770
                                R02R24R14
  21379925.047    21379925.389    21379932.208   114247840.227 8  88859464.352 7
       463.621         360.595          48.000          46.000
  21540458.301    21540457.865    21540461.902   115267346.837 8  89652415.994 7
       602.924         468.944          50.000          47.000
  24617909.396    24617908.340    24617914.954   129367977.526 4 100806220.608 4
      3194.623        2489.327          25.000          25.000
  22999762.042    22999760.530    22999766.074   120864537.923 4  94180168.491 4
     -3498.063       -2725.751          26.000          26.000
  22224284.627    22224284.834    22224287.905   116789402.432 6  91004744.828 6
     -1577.708       -1229.385          38.000          38.000
  23640876.999    23640878.003    23640884.092   124233656.524 4  96805443.769 4
     -1345.940       -1048.784          27.000          27.000
  21431879.436    21431878.882    21431879.885   112625304.765 6  87759998.491 6
       636.086         495.654          41.000          41.000
  20621567.460    20621567.712    20621573.286   108367101.647 7  84441915.636 7
     -1550.030       -1207.816          46.000          46.000
  21283053.605    21283053.160    21283060.618   113770142.959 8  88487883.838 7
       532.698         414.322          49.000          42.000
  21348937.157    21348936.105    21348941.161   112189478.914 6  87420321.763 6
      1832.855        1428.201          40.000          40.000
  22916429.008    22916429.546    22916431.671   120426644.455 5  93838963.165 5
      2508.487        1954.670          33.000          33.000
  23804684.032    23804683.097    23804690.844   127115657.789 6  98867753.465 6
     -4877.000       -3793.211          38.000          40.000
  22346824.043    22346824.211    22346830.304   119246948.013 7  92747642.446 7
      3269.635        2543.052          47.000          43.000
  21082442.672    21082442.184    21082446.643   112737349.407 8  87684643.854 7
     -1448.456       -1126.574          48.000          43.000
  20738340.438    20738339.757    20738347.807   110547029.789 7  85981050.511 7
     -3169.752       -2465.362          46.000          43.000
 14 12  9  0 51 30.0000000  0 15R15R17G05G28G17G24G02G06R01G10G12R13  .000428510
                                R02R24R14
  21377395.687    21377396.302    21377402.863   114234324.735 8  88848952.251 7
       437.547         340.314          48.000          46.000
  21537085.085    21537084.963    21537089.250   115249300.002 8  89638379.517 7
       600.388         466.968          50.000          47.000
  24599669.670    24599669.920    24599676.122   129272133.814 4 100731537.152 4
      3195.132        2489.705          26.000          26.000
  23019761.094    23019761.389    23019766.493   120969640.406 4  94262066.377 4
     -3508.587       -2733.967          26.000          26.000
  22233305.841    22233305.692    22233308.975   116836807.530 6  91041683.777 6
     -1582.487       -1233.108          38.000          38.000
  23648603.756    23648603.571    23648609.742   124274257.175 4  96837080.563 4
     -1360.539       -1060.154          27.000          28.000
  21428278.431    21428277.711    21428278.977   112606380.314 6  87745252.128 6
       625.709         487.566          41.000          41.000
  20630448.843    20630449.257    20630454.795   108413773.999 7  84478283.662 7
     -1561.276       -1216.580          47.000          47.000
  21280132.297    21280131.641    21280139.181   113754524.824 8  88475736.375 7
       508.682         395.641          49.000          42.000
  21338519.122    21338517.923    21338522.735   112134730.468 6  87377660.602 6
      1817.184        1415.986          40.000          40.000
  22902132.407    22902132.426    22902134.185   120351511.591 5  93780418.024 5
      2500.539        1948.468          33.000          33.000
  23832078.924    23832079.013    23832086.755   127261950.719 6  98981536.641 6
     -4875.727       -3792.224          37.000          40.000
  22328460.046    22328459.570    22328466.430   119148956.546 7  92671426.862 7
      3263.225        2538.065          47.000          43.000
  21090575.276    21090574.857    21090579.011   112780836.031 8  87718466.718 7
     -1450.484       -1128.152          48.000          42.000
  20756236.096    20756236.166    20756244.499   110642428.004 7  86055249.040 7
     -3189.909       -2481.040          47.000          43.000
 14 12  9  0 52  0.0000000  0 16R15R17R08G05G28G17G24G02G06R01G10G12  .000438249
                                R13R02R24R14
  21375011.292    21375012.016    21375018.324   114221582.346 8  88839041.452 7
       411.793         320.279          48.000          46.000
  21533724.985    21533724.601    21533728.618   115231318.778 8  89624394.066 7
       598.250         465.307          49.000          47.000
  23465914.367    23465913.965    23465919.668   125658902.629 1  97734739.722 1
     -2831.544       -2202.312           1.000           1.000
  24581427.834    24581427.754    24581433.102   129176266.934 4 100656835.594 4
      3195.804        2490.241          25.000          25.000
  23039819.769    23039819.371    23039823.588   121075042.837 4  94344197.955 4
     -3518.455       -2741.640          27.000          27.000
  22242352.114    22242351.921    22242355.375   116884345.769 6  91078726.487 6
     -1586.909       -1236.553          38.000          38.000
  23656410.799    23656411.747    23656417.336   124315284.547 4  96869049.873 4
     -1374.720       -1071.217          28.000          27.000
  21424734.377    21424733.859    21424735.259   112587756.715 7  87730740.201 7
       615.717         479.783          42.000          42.000
  20639392.428    20639392.733    20639398.312   108460772.315 7  84514905.688 7
     -1572.081       -1225.001          46.000          46.000
  21277343.589    21277343.044    21277351.260   113739618.551 8  88464142.578 7
       484.957         377.188          49.000          42.000
  21328188.395    21328187.351    21328192.269   112080443.197 6  87335358.797 6
      1801.798        1403.997          40.000          40.000
  22887879.223    22887879.055    22887880.861   120276610.625 5  93722053.580 5
      2492.765        1942.408          33.000          33.000
  23859465.011    23859464.351    23859473.123   127408191.186 6  99095279.012 6
     -4873.823       -3790.745          37.000          39.000
  22310132.198    22310131.131    22310136.697   119051146.933 7  92595352.706 7
      3257.182        2533.355          47.000          43.000
  21098717.202    21098716.484    21098720.138   112824372.554 8  87752328.405 7
     -1452.129       -1129.435          48.000          42.000
  20774244.407    20774243.749    20774251.817   110738417.006 7  86129907.078 7
     -3209.528       -2496.297          46.000          42.000
 14 12  9  0 52 30.0000000  0 16R15R17R08G05G28G17G24G02G06R01G10G12  .000447993
                                R13R02R24R14
  21372773.615    21372773.811    21372780.804   114209625.003 8  88829741.242 7
       385.783         300.055          48.000          46.000
  21530378.455    21530378.499    21530382.548   115213413.671 8  89610467.815 7
       595.892         463.473          49.000          47.000
  23481835.522    23481836.288    23481839.105   125744167.037 5  97801056.400 5
     -2852.003       -2218.224          34.000          32.000
  24563183.795    24563182.988    24563188.619   129080390.491 4 100582126.605 4
      3196.349        2490.651          25.000          25.000
  23059935.415    23059935.978    23059939.597   121180754.370 4  94426570.393 4
     -3528.580       -2749.537          26.000          26.000
  22251425.309    22251425.438    22251429.357   116932028.582 6  91115881.840 6
     -1591.556       -1240.173          38.000          38.000
  23664301.875    23664301.312    23664307.847   124356747.499 4  96901358.591 4
     -1389.033       -1082.363          28.000          28.000
  21421249.738    21421249.056    21421250.552   112569444.114 7  87716470.604 7
       605.544         471.852          42.000          42.000
  20648399.391    20648399.856    20648405.562   108508105.663 7  84551788.777 7
     -1583.039       -1233.532          46.000          46.000
  21274690.828    21274690.366    21274698.481   113725437.064 8  88453112.504 7
       460.915         358.492          49.000          42.000
  21317948.024    21317947.048    21317952.454   112026630.555 6  87293426.834 6
      1786.118        1391.779          40.000          40.000
  22873672.582    22873672.582    22873674.704   120201954.648 5  93663880.037 5
      2484.735        1936.163          33.000          33.000
  23886842.153    23886842.009    23886850.464   127554386.060 6  99208985.911 6
     -4872.027       -3789.347          37.000          39.000
  22291837.512    22291838.018    22291845.135   118953534.439 7  92519431.873 7
      3250.704        2528.326          46.000          44.000
  21106869.992    21106869.553    21106873.312   112867970.137 8  87786237.568 7
     -1453.966       -1130.862          49.000          42.000
  20792363.464    20792363.022    20792371.518   110835004.117 7  86205030.309 7
     -3229.166       -2511.569          46.000          42.000
 14 12  9  0 53  0.0000000  0 16R15R17R08G05G28G17G24G02G06R01G10G12  .000457738
                                R13R02R24R14
  21370682.084    21370682.500    21370688.960   114198448.376 8  88821048.264 7
       359.878         279.908          48.000          46.000
  21527046.190    21527046.323    21527049.705   115195577.931 8  89596595.522 7
       593.688         461.759          50.000          47.000
  23497872.399    23497871.757    23497874.851   125830033.222 5  97867841.165 5
     -2871.846       -2233.655          34.000          33.000
  24544935.959    24544936.707    24544941.520   128984501.105 4 100507407.512 4
      3196.758        2491.002          25.000          25.000
  23080110.210    23080109.470    23080114.778   121286767.438 4  94509177.809 4
     -3538.436       -2757.223          26.000          26.000
  22260526.027    22260526.171    22260529.777   116979851.261 6  91153146.172 6
     -1596.141       -1243.762          38.000          38.000
  23672273.031    23672273.106    23672279.406   124398638.082 4  96934000.527 4
     -1403.195       -1093.398          28.000          27.000
  21417823.057    21417822.363    21417823.856   112551436.314 7  87702438.517 7
       595.488         464.016          42.000          42.000
  20657469.022    20657469.352    20657475.167   108555766.409 7  84588926.981 7
     -1593.839       -1241.952          46.000          46.000
  21272172.499    21272172.398    21272180.336   113711977.144 8  88442643.651 7
       436.934         339.839          48.000          42.000
  21307797.624    21307796.652    21307802.078   111973289.583 6  87251862.406 6
      1770.432        1379.559          40.000          40.000
  22859512.161    22859511.979    22859513.854   120127540.877 5  93605895.228 5
      2476.676        1929.885          33.000          33.000
  23914210.741    23914210.028    23914218.068   127700525.512 6  99322649.714 6
     -4870.117       -3787.857          37.000          38.000
  22273582.791    22273582.105    22273589.630   118856118.056 7  92443663.549 7
      3244.199        2523.264          47.000          44.000
  21115033.981    21115033.378    21115036.899   112911622.740 8  87820189.541 7
     -1455.734       -1132.236          49.000          42.000
  20810592.930    20810592.385    20810601.258   110932178.727 7  86280610.487 7
     -3248.612       -2526.693          46.000          42.000
 14 12  9  0 53 30.0000000  0 16R15R17R08G05G28G17G24G02G06R01G10G12  .000467483
                                R13R02R24R14
  21368736.853    21368737.090    21368742.915   114188050.256 8  88812960.776 7
       333.665         259.521          48.000          46.000
  21523725.890    21523725.914    21523729.240   115177808.242 8  89582774.604 7
       591.258         459.867          50.000          47.000
  23514018.168    23514017.598    23514022.122   125916496.275 6  97935090.123 5
     -2892.035       -2249.358          36.000          35.000
  24526686.303    24526686.876    24526692.436   128888599.332 4 100432678.799 4
      3196.954        2491.143          25.000          25.000
  23100340.182    23100339.578    23100344.848   121393077.394 4  94592016.548 4
     -3548.523       -2765.075          26.000          26.000
  22269653.269    22269652.631    22269656.315   117027812.434 6  91190518.438 6
     -1600.951       -1247.501          37.000          37.000
  23680324.989    23680325.113    23680330.871   124440952.177 4  96966972.475 4
     -1417.411       -1104.471          28.000          27.000
  21414453.698    21414453.006    21414454.525   112533730.433 7  87688641.690 7
       585.232         456.025          42.000          42.000
  20666600.369    20666600.566    20666606.314   108603750.290 7  84626316.975 7
     -1604.741       -1250.447          46.000          46.000
  21269789.043    21269788.861    21269797.472   113699238.595 8  88432735.872 6
       412.639         320.943          49.000          41.000
  21297737.167    21297736.273    21297741.441   111920421.051 6  87210666.113 6
      1754.447        1367.101          40.000          40.000
  22845398.081    22845397.932    22845399.557   120053369.156 5  93548099.037 5
      2468.369        1923.404          33.000          33.000
  23941567.128    23941565.893    23941573.844   127846603.274 6  99436265.530 6
     -4868.149       -3786.333          37.000          38.000
  22255364.209    22255363.481    22255370.749   118758899.582 7  92368049.165 7
      3237.314        2517.913          47.000          45.000
  21123206.446    21123206.038    21123209.847   112955327.813 8  87854182.319 7
     -1457.620       -1133.699          49.000          42.000
  20828932.118    20828931.449    20828939.811   111029934.672 7  86356642.815 7
     -3268.111       -2541.863          46.000          42.000
 14 12  9  0 54  0.0000000  0 16R15R17R08G05G28G17G24G02G06R01G10G12  .000477230
                                R13R02R24R14
  21366936.917    21366937.475    21366943.499   114178434.866 8  88805482.085 7
       307.408         239.095          49.000          46.000
  21520417.248    21520417.719    21520421.839   115160107.088 8  89569006.988 7
       588.812         457.963          50.000          47.000
  23530275.843    23530275.488    23530279.086   126003556.482 6  98002803.536 5
     -2911.855       -2264.773          36.000          35.000
  24508435.341    24508435.203    24508441.535   128792690.648 4 100357944.708 4
      3197.037        2491.206          25.000          25.000
  23120626.841    23120626.755    23120631.702   121499685.547 4  94675087.651 4
     -3558.614       -2772.944          26.000          26.000
  22278806.698    22278806.352    22278810.119   117075914.940 6  91228000.829 6
     -1605.831       -1251.293          37.000          37.000
  23688458.229    23688458.272    23688464.107   124483690.563 4  97000275.037 4
     -1431.649       -1115.566          28.000          28.000
  21411142.509    21411141.616    21411142.811   112516328.729 6  87675081.881 6
       574.940         448.007          41.000          41.000
  20675793.065    20675793.424    20675798.970   108652058.273 7  84663959.511 7
     -1615.700       -1258.987          46.000          46.000
  21267542.494    21267541.851    21267549.502   113687226.385 8  88423393.019 6
       388.229         301.957          49.000          41.000
  21287767.461    21287766.422    21287771.755   111868030.586 6  87169842.335 6
      1738.298        1354.520          40.000          40.000
  22831330.601    22831330.632    22831332.228   119979445.679 5  93490496.275 5
      2459.920        1916.819          32.000          32.000
  23968911.150    23968909.776    23968917.923   127992618.503 6  99549832.713 6
     -4866.133       -3784.758          37.000          38.000
  22237184.436    22237183.885    22237190.685   118661886.550 7  92292594.572 7
      3230.252        2512.416          47.000          44.000
  21131389.969    21131389.590    21131393.573   112999088.428 8  87888218.298 7
     -1459.644       -1135.276          49.000          42.000
  20847380.626    20847379.467    20847386.938   111128270.145 7  86433125.871 7
     -3287.471       -2556.920          46.000          42.000
 14 12  9  0 54 30.0000000  0 16R15R17R08G05G28G17G24G02G06R01G10G12  .000486974
                                R13R02R24R14
  21365283.359    21365283.462    21365289.234   114169596.171 8  88798607.485 7
       281.756         219.148          48.000          46.000
  21517121.018    21517120.695    21517125.179   115142466.803 8  89555286.720 7
       587.085         456.624          50.000          47.000
  23546644.114    23546643.794    23546646.147   126091204.445 6  98070974.111 5
     -2931.275       -2279.877          38.000          35.000
  24490183.033    24490182.852    24490189.049   128696770.922 4 100283202.021 4
      3197.596        2491.638          26.000          26.000
  23140970.179    23140968.964    23140973.314   121606583.431 4  94758384.524 4
     -3568.001       -2780.260          25.000          25.000
  22287986.397    22287986.316    22287989.585   117124153.509 6  91265589.247 6
     -1610.150       -1254.660          37.000          37.000
  23696670.942    23696670.228    23696676.314   124526844.967 4  97033901.768 4
     -1445.282       -1126.191          28.000          28.000
  21407887.780    21407886.808    21407887.897   112499224.259 7  87661753.687 7
       565.276         440.479          42.000          42.000
  20685045.970    20685046.205    20685051.811   108700682.012 7  84701848.099 7
     -1625.964       -1266.982          46.000          46.000
  21265430.271    21265429.902    21265437.786   113675935.775 8  88414611.412 6
       364.377         283.408          49.000          41.000
  21277888.895    21277887.288    21277892.349   111816114.381 6  87129388.123 6
      1722.673        1342.345          40.000          40.000
  22817309.240    22817309.542    22817311.413   119905766.321 5  93433083.740 5
      2451.946        1910.615          32.000          32.000
  23996240.463    23996239.895    23996249.337   128138560.388 6  99663342.838 6
     -4863.366       -3782.609          36.000          38.000
  22219041.863    22219042.170    22219048.798   118565077.130 8  92217298.344 7
      3223.586        2507.233          48.000          44.000
  21139582.539    21139582.398    21139586.178   113042898.114 8  87922292.438 7
     -1461.052       -1136.370          49.000          42.000
  20865934.926    20865933.868    20865941.676   111227174.547 7  86510051.428 7
     -3306.182       -2571.472          46.000          42.000
 14 12  9  0 55  0.0000000  0 16R15R17R08G05G28G17G24G02G06R01G10G12  .000496717
                                R13R02R24R14
  21363774.959    21363775.215    21363781.441   114161536.260 8  88792338.606 7
       255.795         198.952          48.000          45.000
  21513836.327    21513835.821    21513840.258   115124888.234 8  89541614.451 8
       585.082         455.065          50.000          48.000
  23563118.778    23563120.131    23563122.244   126179438.684 6  98139600.696 5
     -2950.752       -2295.029          38.000          35.000
  24471929.264    24471928.981    24471935.084   128600844.625 4 100208454.203 4
      3197.752        2491.751          26.000          26.000
  23161367.912    23161366.626    23161371.133   121713770.800 4  94841906.962 4
     -3577.590       -2787.733          26.000          26.000
  22297191.978    22297191.920    22297195.563   117172530.187 6  91303285.271 6
     -1614.720       -1258.225          38.000          37.000
  23704961.014    23704961.070    23704967.308   124570414.884 4  97067852.274 4
     -1459.149       -1137.004          27.000          27.000
  21404689.382    21404688.609    21404689.542   112482417.439 7  87648657.426 7
       555.400         432.781          42.000          42.000
  20694358.517    20694359.021    20694364.644   108749621.017 7  84739982.346 7
     -1636.377       -1275.096          47.000          47.000
  21263454.257    21263453.935    21263461.235   113665370.593 8  88406394.021 6
       340.235         264.632          49.000          41.000
  21268100.656    21268099.179    21268103.948   111764676.853 6  87089306.894 6
      1706.714        1329.908          40.000          40.000
  22803336.045    22803336.397    22803338.290   119832335.111 5  93375864.569 5
      2443.692        1904.175          32.000          32.000
  24023556.340    24023556.251    24023565.467   128284426.740 6  99776794.214 6
     -4860.777       -3780.595          36.000          38.000
  22200939.239    22200939.285    22200945.171   118468477.008 8  92142164.907 7
      3216.603        2501.802          48.000          44.000
  21147785.655    21147784.920    21147788.161   113086757.890 8  87956405.527 7
     -1462.737       -1137.680          49.000          42.000
  20884594.575    20884593.935    20884601.926   111326644.617 7  86587416.948 6
     -3324.912       -2586.041          46.000          41.000
 14 12  9  0 55 30.0000000  0 16R15R17R08G05G28G17G24G02G06R01G10G12 -.000493540
                                R13R02R24R14
  21062620.049    21062620.368    21062626.205   112552255.436 8  87540675.683 7
       229.682         178.643          48.000          45.000
  21210769.496    21210769.601    21210773.952   113503120.621 8  88280239.591 7
       582.888         453.361          50.000          47.000
  23279914.122    23279913.870    23279917.482   124662885.222 6  96960059.029 5
     -2970.308       -2310.239          37.000          35.000
  24153881.302    24153881.219    24153886.592   126929491.209 4  98906100.857 4
      3197.731        2491.732          27.000          27.000
  22882027.209    22882026.978    22882031.726   120245829.942 4  93698056.741 4
     -3587.302       -2795.284          26.000          26.000
  22006631.992    22006631.920    22006635.849   115645627.844 6  90113491.157 6
     -1619.498       -1261.940          38.000          37.000
  23413539.023    23413539.395    23413545.108   123038979.514 4  95874525.935 4
     -1472.930       -1147.737          28.000          28.000
  21101755.440    21101754.586    21101755.525   110890488.162 7  86408193.013 7
       545.344         424.945          42.000          42.000
  20403938.878    20403939.281    20403945.110   107223455.549 7  83550762.455 7
     -1646.937       -1283.326          47.000          46.000
  20961820.820    20961820.947    20961828.963   112052970.630 8  87152305.133 6
       315.779         245.609          49.000          41.000
  20958611.105    20958609.761    20958614.717   110138299.501 6  85821999.833 6
      1690.482        1317.260          40.000          40.000
  22489617.140    22489617.510    22489619.216   118183732.379 5  92091239.011 5
      2435.131        1897.508          32.000          32.000
  23751066.635    23751066.395    23751076.377   126829344.268 5  98645063.173 6
     -4858.289       -3778.663          35.000          38.000
  21883084.419    21883084.137    21883090.100   116772338.359 8  90822945.941 7
      3209.281        2496.108          48.000          44.000
  20856204.744    20856204.095    20856207.391   111527544.969 8  86743684.314 7
     -1464.520       -1139.070          49.000          42.000
  20603568.617    20603567.881    20603576.175   109828617.674 7  85422284.797 7
     -3343.718       -2600.663          46.000          42.000
 14 12  9  0 56  0.0000000  0 16R15R17R08G05G28G17G24G02G06R01G10G12 -.000483800
                                R13R02R24R14
  21061403.824    21061404.434    21061410.192   112545755.985 8  87535620.490 7
       203.644         158.394          48.000          45.000
  21207508.148    21207508.306    21207511.989   113485664.386 8  88266662.472 7
       580.872         451.791          50.000          47.000
  23296609.068    23296608.572    23296612.289   124752285.304 6  97029592.365 6
     -2989.569       -2325.213          38.000          36.000
  24135624.923    24135625.929    24135631.619   126833560.059 4  98831349.258 4
      3197.719        2491.727          27.000          27.000
  22902533.780    22902533.130    22902538.199   120353591.354 4  93782026.478 4
     -3596.795       -2802.682          26.000          26.000
  22015891.568    22015891.295    22015894.836   115694284.210 6  90151405.121 6
     -1624.210       -1265.623          37.000          37.000
  23421987.761    23421987.356    23421993.473   123083374.760 4  95909119.557 4
     -1486.662       -1158.435          28.000          28.000
  21098670.328    21098669.566    21098670.576   110874276.791 6  86395560.747 6
       535.467         417.251          41.000          41.000
  20413370.823    20413371.153    20413377.129   107273020.572 7  83589384.502 7
     -1657.305       -1291.405          47.000          46.000
  20960117.612    20960117.154    20960125.544   112043863.822 8  87145222.034 6
       291.413         226.652          49.000          41.000
  20949006.738    20949005.440    20949010.682   110087828.576 6  85782671.810 6
      1674.298        1304.647          40.000          40.000
  22475740.467    22475740.175    22475742.246   118110806.310 5  92034413.453 5
      2426.640        1890.898          33.000          33.000
  23778349.645    23778352.286    23778362.191   126975049.411 5  98758389.165 6
     -4855.321       -3776.355          35.000          37.000
  21865061.977    21865061.988    21865068.499   116676172.080 7  90748149.938 7
      3201.834        2490.309          47.000          44.000
  20864425.008    20864424.714    20864428.548   111571506.373 8  86777876.443 7
     -1466.210       -1140.384          48.000          42.000
  20622438.953    20622438.537    20622446.406   109929207.711 7  85500521.405 7
     -3362.177       -2615.023          45.000          42.000
 14 12  9  0 56 30.0000000  0 16R15R17R08G05G28G17G24G02G06R01G10G12 -.000474059
                                R13R02R24R14
  21060333.887    21060334.204    21060340.510   112540039.892 8  87531174.576 7
       177.559         138.104          48.000          46.000
  21204257.833    21204257.585    21204261.185   113468269.456 8  88253133.032 7
       578.861         450.226          50.000          47.000
  23313409.811    23313411.360    23313416.280   124842265.121 6  97099576.613 6
     -3008.927       -2340.273          38.000          37.000
  24117371.154    24117371.352    24117376.272   126737631.744 4  98756599.875 4
      3197.594        2491.633          27.000          27.000
  22923095.137    22923093.631    22923098.821   120461638.135 4  93866218.585 4
     -3606.209       -2810.021          26.000          26.000
  22025177.325    22025177.311    22025180.995   115743082.697 6  90189429.827 6
     -1628.931       -1269.291          37.000          37.000
  23430514.362    23430513.603    23430519.985   123128180.621 4  95944033.133 4
     -1500.294       -1169.058          28.000          28.000
  21095642.307    21095641.409    21095642.443   110858363.460 7  86383160.716 7
       525.538         409.512          42.000          42.000
  20422862.233    20422862.497    20422868.224   107322897.013 7  83628249.220 7
     -1667.665       -1299.481          46.000          46.000
  20958551.174    20958550.675    20958558.951   112035490.409 8  87138709.349 6
       266.927         207.612          49.000          41.000
  20939495.454    20939494.529    20939499.456   110037846.158 6  85743724.443 6
      1657.967        1291.923          41.000          41.000
  22461912.201    22461912.022    22461914.203   118038138.424 5  91977789.080 5
      2417.980        1884.145          33.000          33.000
  23805621.841    23805622.865    23805632.075   127120668.962 5  98871648.576 6
     -4852.392       -3774.082          34.000          36.000
  21847082.612    21847081.935    21847089.026   116580230.700 7  90673528.829 7
      3194.311        2484.467          47.000          44.000
  20872656.349    20872655.597    20872659.365   111615519.985 8  86812109.184 7
     -1467.940       -1141.730          48.000          42.000
  20641413.410    20641413.099    20641421.197   110030352.273 7  85579189.311 7
     -3380.597       -2629.351          46.000          42.000
 14 12  9  0 57  0.0000000  0 16R15R17R08G05G28G17G24G02G06R01G10G12 -.000464318
                                R13R02R24R14
  21059411.448    21059411.494    21059417.625   112535108.690 8  87527339.143 7
       151.442         117.791          48.000          45.000
  21201018.448    21201018.393    21201022.768   113450937.920 8  88239652.892 8
       576.823         448.643          50.000          48.000
  23330324.137    23330323.325    23330327.236   124932824.758 6  97170011.802 6
     -3028.093       -2355.185          39.000          38.000
  24099118.153    24099118.172    24099123.203   126641711.603 4  98681856.861 4
      3197.321        2491.424          26.000          26.000
  22943709.554    22943709.250    22943714.209   120569970.772 4  93950633.451 4
     -3615.629       -2817.380          26.000          26.000
  22034491.037    22034490.713    22034494.875   115792026.290 6  90227567.607 6
     -1633.737       -1273.034          37.000          37.000
  23439118.181    23439118.334    23439124.118   123173397.918 4  95979267.311 4
     -1513.959       -1179.717          28.000          28.000
  21092671.069    21092670.501    21092671.288   110842750.130 6  86370994.457 7
       515.616         401.777          41.000          42.000
  20432412.624    20432413.028    20432418.636   107373085.481 7  83667357.071 7
     -1677.996       -1307.530          46.000          46.000
  20957122.969    20957122.811    20957129.902   112027854.926 8  87132770.611 6
       242.334         188.485          49.000          41.000
  20930078.225    20930077.185    20930082.266   109988357.760 6  85705162.026 6
      1641.504        1279.093          41.000          41.000
  22448133.754    22448133.961    22448136.058   117965733.733 5  91921369.793 5
      2409.225        1877.323          33.000          33.000
  23832873.630    23832875.883    23832886.672   127266201.790 5  98984840.561 6
     -4849.408       -3771.748          33.000          36.000
  21829146.294    21829146.174    21829153.313   116484521.242 8  90599088.125 7
      3186.526        2478.407          48.000          44.000
  20880897.038    20880896.834    20880900.566   111659588.411 8  86846384.558 7
     -1469.720       -1143.115          48.000          42.000
  20660491.855    20660491.449    20660499.574   110132049.637 7  85658287.180 7
     -3398.917       -2643.599          46.000          42.000
 14 12  9  0 57 30.0000000  0 16R15R17R08G05G28G17G24G02G06R01G10G12 -.000454576
                                R13R02R24R14
  21058635.106    21058635.466    21058641.518   112530961.893 8  87524113.795 7
       125.403          97.538          48.000          45.000
  21197791.223    21197791.194    21197795.536   113433667.375 8  88226220.195 8
       574.914         447.154          50.000          48.000
  23347342.792    23347342.249    23347345.504   125023959.569 6  97240894.388 6
     -3047.161       -2370.011          39.000          38.000
  24080866.172    24080866.412    24080872.444   126545800.597 4  98607120.976 4
      3197.129        2491.267          26.000          26.000
  22964378.505    22964378.642    22964382.974   120678585.566 4  94035268.144 4
     -3624.935       -2824.605          26.000          26.000
  22043831.803    22043832.031    22043835.924   115841114.425 6  90265818.028 6
     -1638.441       -1276.717          37.000          37.000
  23447799.738    23447800.243    23447806.150   123219022.968 4  96014819.211 4
     -1527.365       -1190.141          28.000          28.000
  21089756.862    21089756.091    21089757.002   110827434.567 7  86359060.224 7
       505.800         394.132          42.000          42.000
  20442022.137    20442022.287    20442028.003   107423582.498 7  83706705.353 7
     -1688.114       -1315.414          46.000          46.000
  20955832.548    20955832.106    20955839.085   112020957.558 8  87127405.972 6
       217.844         169.432          49.000          41.000
  20920754.949    20920753.755    20920758.902   109939364.457 6  85666985.392 6
      1625.082        1266.299          41.000          41.000
  22434406.419    22434406.015    22434408.289   117893593.133 5  91865156.284 5
      2400.490        1870.515          34.000          34.000
  23860114.044    23860112.058    23860121.853   127411642.488 5  99097960.838 6
     -4846.218       -3769.283          33.000          36.000
  21811254.686    21811254.351    21811260.828   116389046.828 8  90524830.234 7
      3178.775        2472.385          48.000          44.000
  20889148.278    20889147.863    20889151.500   111703709.827 8  86880701.154 7
     -1471.331       -1144.370          48.000          43.000
  20679672.936    20679672.567    20679680.559   110234293.779 7  85737810.318 7
     -3416.961       -2657.634          46.000          42.000
 14 12  9  0 58  0.0000000  0 16R15R17R08G05G28G17G24G02G06R01G10G12 -.000444835
                                R13R02R24R14
  21058005.939    21058006.197    21058012.334   112527599.490 8  87521498.532 7
        98.719          76.786          48.000          45.000
  21194575.512    21194575.052    21194579.474   113416456.929 8  88212834.247 8
       572.405         445.205          50.000          48.000
  23364467.483    23364467.781    23364471.872   125115666.291 6  97312221.762 6
     -3066.674       -2385.190          40.000          39.000
  24062615.770    24062617.254    24062623.632   126449900.880 4  98532393.881 4
      3196.162        2490.503          26.000          26.000
  22985100.912    22985100.065    22985104.915   120787480.353 4  94120121.046 4
     -3634.742       -2832.268          25.000          25.000
  22053200.941    22053200.831    22053205.013   115890347.622 6  90304181.478 6
     -1643.801       -1280.882          37.000          37.000
  23456559.311    23456560.230    23456565.753   123265053.362 4  96050686.969 4
     -1541.319       -1201.038          27.000          27.000
  21086898.614    21086898.105    21086899.177   110812415.878 7  86347357.323 7
       495.393         386.021          42.000          42.000
  20451689.538    20451690.000    20451695.726   107474385.940 7  83746292.406 7
     -1698.814       -1323.751          46.000          46.000
  20954680.612    20954680.055    20954688.433   112014800.263 8  87122616.924 6
       192.586         149.794          49.000          41.000
  20911526.600    20911525.413    20911530.635   109890868.635 6  85629196.407 6
      1607.918        1252.924          41.000          41.000
  22420729.299    22420729.065    22420731.820   117821718.875 5  91809150.316 5
      2391.046        1863.155          35.000          35.000
  23887329.060    23887329.064    23887341.443   127556987.034 5  99211006.382 6
     -4843.588       -3767.223          31.000          36.000
  21793406.924    21793407.750    21793414.149   116293811.688 8  90450758.448 7
      3170.142        2465.662          49.000          44.000
  20897408.854    20897408.261    20897412.668   111747884.055 8  86915058.825 7
     -1473.679       -1146.197          48.000          42.000
  20698956.086    20698954.744    20698963.002   110337079.752 7  85817754.876 7
     -3435.469       -2672.030          46.000          42.000
 14 12  9  0 58 30.0000000  0 16R15R17R08G05G28G17G24G02G06R01G10G12 -.000435097
                                R13R02R24R14
  21057523.017    21057523.340    21057529.318   112525018.099 8  87519490.715 7
        72.888          56.691          48.000          45.000
  21191369.056    21191369.467    21191373.247   113399301.454 8  88199491.048 7
       570.795         443.953          51.000          47.000
  23381698.510    23381698.750    23381703.042   125207937.699 6  97383988.357 6
     -3085.235       -2399.623          41.000          40.000
  24044369.733    24044370.287    24044376.803   126354011.034 4  98457674.467 4
      3195.952        2490.356          26.000          26.000
  23005875.483    23005873.215    23005879.594   120896649.178 4  94205187.476 4
     -3643.633       -2839.177          25.000          25.000
  22062596.533    22062596.746    22062600.671   115939722.208 6  90342655.107 6
     -1648.335       -1284.416          37.000          37.000
  23465394.807    23465395.097    23465400.876   123311482.234 4  96086865.236 4
     -1554.416       -1211.224          27.000          27.000
  21084096.656    21084095.666    21084096.816   110797689.050 7  86335881.839 7
       485.882         378.610          42.000          42.000
  20461414.366    20461414.773    20461420.569   107525489.615 7  83786113.412 7
     -1708.585       -1331.364          46.000          46.000
  20953666.747    20953666.497    20953673.843   112009379.971 8  87118401.114 6
       168.213         130.831          49.000          40.000
  20902392.681    20902391.351    20902396.738   109842868.935 6  85591794.010 6
      1591.546        1240.164          41.000          41.000
  22407102.846    22407102.214    22407104.850   117750109.758 5  91753350.947 5
      2382.381        1856.404          34.000          34.000
  23914533.801    23914528.026    23914540.014   127702227.154 5  99323970.641 5
     -4839.741       -3764.235          31.000          35.000
  21775605.146    21775605.214    21775612.016   116198816.177 8  90376873.058 7
      3162.414        2459.655          48.000          45.000
  20905679.114    20905678.214    20905682.177   111792107.132 8  86949454.486 7
     -1475.055       -1147.265          48.000          43.000
  20718337.438    20718336.988    20718345.657   110440399.017 7  85898114.215 7
     -3452.960       -2685.632          46.000          42.000
 14 12  9  0 59  0.0000000  0 16R15R17R08G05G28G17G24G02G06R01G10G12 -.000425357
                                R13R02R24R14
  21057186.803    21057187.184    21057193.799   112523223.953 7  87518095.199 7
        46.839          36.432          47.000          45.000
  21188174.855    21188174.973    21188178.172   113382206.517 8  88186194.941 7
       569.033         442.584          50.000          47.000
  23399036.084    23399036.739    23399040.024   125300777.285 7  97456196.859 6
     -3103.946       -2414.181          42.000          40.000
  24026126.340    24026126.756    24026132.700   126258139.760 4  98382969.540 4
      3195.518        2490.027          27.000          27.000
  23026701.794    23026700.510    23026706.518   121006095.996 4  94290470.507 4
     -3652.692       -2846.247          25.000          24.000
  22072020.491    22072020.644    22072024.800   115989245.043 6  90381244.248 6
     -1653.089       -1288.120          37.000          37.000
  23474306.206    23474306.564    23474312.429   123358314.085 4  96123357.503 4
     -1567.599       -1221.517          27.000          27.000
  21081350.561    21081349.916    21081351.133   110783259.603 7  86324638.082 7
       476.191         371.056          42.000          42.000
  20471197.128    20471197.451    20471203.179   107576897.645 7  83826171.580 7
     -1718.503       -1339.093          46.000          46.000
  20952792.468    20952791.959    20952799.744   112004704.721 8  87114764.768 6
       143.565         111.662          49.000          41.000
  20893354.410    20893353.153    20893358.804   109795373.924 6  85554784.880 6
      1574.889        1227.184          41.000          41.000
  22393527.830    22393527.592    22393530.390   117678774.387 5  91697764.889 5
      2373.388        1849.398          34.000          34.000
  23941711.406    23941709.172    23941719.980   127847365.434 5  99436855.729 5
     -4836.092       -3761.391          31.000          35.000
  21757851.665    21757849.746    21757856.711   116104070.882 8  90303182.256 7
      3154.100        2453.188          48.000          45.000
  20913958.809    20913958.694    20913962.730   111836385.010 8  86983892.766 7
     -1476.695       -1148.538          48.000          43.000
  20737820.870    20737819.742    20737828.330   110544253.097 7  85978889.519 7
     -3470.508       -2699.280          45.000          42.000
 14 12  9  0 59 30.0000000  0 16R15R17R08G05G28G17G24G02G06R01G10G12 -.000415616
                                R13R02R24R14
  21056999.372    21056999.311    21057005.814   112522218.304 8  87517312.965 7
        20.459          15.913          48.000          45.000
  21184991.931    21184991.555    21184995.388   113365172.393 8  88172946.138 7
       566.888         440.914          51.000          47.000
  23416479.439    23416478.673    23416483.336   125394182.788 7  97528845.513 6
     -3122.804       -2428.844          42.000          40.000
  24007887.338    24007887.254    24007892.759   126162290.675 4  98308281.898 4
      3194.617        2489.318          27.000          27.000
  23047579.853    23047580.917    23047586.366   121115819.801 4  94375969.393 3
     -3661.963       -2853.473          24.000          23.000
  22081472.768    22081472.841    22081477.119   116038917.776 6  90419950.197 6
     -1658.162       -1292.071          37.000          37.000
  23483294.908    23483295.182    23483300.535   123405547.365 4  96160162.559 4
     -1580.968       -1231.912          27.000          27.000
  21078661.374    21078660.729    21078662.055   110769127.692 7  86313626.174 7
       466.223         363.291          43.000          43.000
  20481037.221    20481037.737    20481043.547   107628609.172 7  83866466.233 7
     -1728.638       -1346.988          46.000          46.000
  20952057.726    20952057.241    20952064.622   112000777.471 8  87111710.208 6
       118.526          92.188          49.000          41.000
  20884412.716    20884412.018    20884417.244   109748387.263 6  85518171.870 6
      1557.824        1213.890          41.000          40.000
  22380005.978    22380005.697    22380008.236   117607716.515 5  91642395.066 5
      2364.027        1842.111          35.000          35.000
  23968872.237    23968871.800    23968879.602   127992399.159 5  99549659.459 5
     -4832.671       -3758.735          31.000          34.000
  21740141.904    21740143.017    21740149.803   116009581.506 8  90229690.511 7
      3145.414        2446.438          48.000          45.000
  20922250.063    20922249.361    20922253.350   111880718.930 8  87018374.633 7
     -1478.627       -1150.040          48.000          43.000
  20757402.788    20757402.256    20757411.041   110648638.593 7  86060078.153 7
     -3488.224       -2713.058          45.000          42.000